{
"type": "FeatureCollection",
"crs": { "type": "name", "properties": { "name": "urn:ogc:def:crs:OGC:1.3:CRS84" } },
"features": [
{ "type": "Feature", "properties": { "ARPT_ID": "00N", "ARPT_NAME": "BUCKS" }, "geometry": { "type": "Point", "coordinates": [ -75.18456752, 39.47373919 ] } },
{ "type": "Feature", "properties": { "ARPT_ID": "01G", "ARPT_NAME": "PERRY-WARSAW" }, "geometry": { "type": "Point", "coordinates": [ -78.05214805, 42.74134861 ] } },
{ "type": "Feature", "properties": { "ARPT_ID": "01J", "ARPT_NAME": "HILLIARD AIRPARK" }, "geometry": { "type": "Point", "coordinates": [ -81.90634305, 30.68596666 ] } },
{ "type": "Feature", "properties": { "ARPT_ID": "02C", "ARPT_NAME": "CAPITOL DRIVE" }, "geometry": { "type": "Point", "coordinates": [ -88.17944525, 43.08964136 ] } },
{ "type": "Feature", "properties": { "ARPT_ID": "03GA", "ARPT_NAME": "HIA" }, "geometry": { "type": "Point", "coordinates": [ -81.85769444, 32.56230555 ] } },
{ "type": "Feature", "properties": { "ARPT_ID": "05K", "ARPT_NAME": "WILDER RUNWAY" }, "geometry": { "type": "Point", "coordinates": [ -154.323049160000011, 60.19848083 ] } },
{ "type": "Feature", "properties": { "ARPT_ID": "08A", "ARPT_NAME": "WETUMPKA MUNI" }, "geometry": { "type": "Point", "coordinates": [ -86.33102777, 32.52733333 ] } },
{ "type": "Feature", "properties": { "ARPT_ID": "08K", "ARPT_NAME": "HARVARD STATE" }, "geometry": { "type": "Point", "coordinates": [ -98.07988888, 40.65133333 ] } },
{ "type": "Feature", "properties": { "ARPT_ID": "08N", "ARPT_NAME": "KELLER BROTHERS" }, "geometry": { "type": "Point", "coordinates": [ -76.32874722, 40.29155138 ] } },
{ "type": "Feature", "properties": { "ARPT_ID": "0C0", "ARPT_NAME": "DACY" }, "geometry": { "type": "Point", "coordinates": [ -88.63238888, 42.40247222 ] } },
{ "type": "Feature", "properties": { "ARPT_ID": "0D8", "ARPT_NAME": "GETTYSBURG MUNI" }, "geometry": { "type": "Point", "coordinates": [ -99.95288888, 44.98661111 ] } },
{ "type": "Feature", "properties": { "ARPT_ID": "0F4", "ARPT_NAME": "LOUP CITY MUNI" }, "geometry": { "type": "Point", "coordinates": [ -98.99002777, 41.28636111 ] } },
{ "type": "Feature", "properties": { "ARPT_ID": "0G7", "ARPT_NAME": "FINGER LAKES RGNL" }, "geometry": { "type": "Point", "coordinates": [ -76.78116666, 42.88355555 ] } },
{ "type": "Feature", "properties": { "ARPT_ID": "0GA9", "ARPT_NAME": "GENTLE LANDINGS AIR PARK" }, "geometry": { "type": "Point", "coordinates": [ -84.02853888, 32.71359583 ] } },
{ "type": "Feature", "properties": { "ARPT_ID": "0LA3", "ARPT_NAME": "BELCHER AIRPATCH" }, "geometry": { "type": "Point", "coordinates": [ -93.87348611, 32.74931944 ] } },
{ "type": "Feature", "properties": { "ARPT_ID": "0MS9", "ARPT_NAME": "SHENANDOAH VALLEY FARMS" }, "geometry": { "type": "Point", "coordinates": [ -89.02728305, 33.80067083 ] } },
{ "type": "Feature", "properties": { "ARPT_ID": "0TA2", "ARPT_NAME": "SMITH FARMS" }, "geometry": { "type": "Point", "coordinates": [ -101.92545777, 34.21673944 ] } },
{ "type": "Feature", "properties": { "ARPT_ID": "0V3", "ARPT_NAME": "PIONEER VILLAGE FLD" }, "geometry": { "type": "Point", "coordinates": [ -98.94563888, 40.51491666 ] } },
{ "type": "Feature", "properties": { "ARPT_ID": "10C", "ARPT_NAME": "GALT FLD" }, "geometry": { "type": "Point", "coordinates": [ -88.37511111, 42.40288888 ] } },
{ "type": "Feature", "properties": { "ARPT_ID": "10D", "ARPT_NAME": "WINSTED MUNI" }, "geometry": { "type": "Point", "coordinates": [ -94.06539027, 44.95385 ] } },
{ "type": "Feature", "properties": { "ARPT_ID": "10IA", "ARPT_NAME": "FLYERS" }, "geometry": { "type": "Point", "coordinates": [ -92.25018333, 42.41665555 ] } },
{ "type": "Feature", "properties": { "ARPT_ID": "11CL", "ARPT_NAME": "HANSEN" }, "geometry": { "type": "Point", "coordinates": [ -117.65339083, 34.62999 ] } },
{ "type": "Feature", "properties": { "ARPT_ID": "11MD", "ARPT_NAME": "TIM'S" }, "geometry": { "type": "Point", "coordinates": [ -75.62777777, 38.43333333 ] } },
{ "type": "Feature", "properties": { "ARPT_ID": "11V", "ARPT_NAME": "EASTON/VALLEY VIEW/" }, "geometry": { "type": "Point", "coordinates": [ -104.60939444, 40.32735694 ] } },
{ "type": "Feature", "properties": { "ARPT_ID": "12K", "ARPT_NAME": "SUPERIOR MUNI" }, "geometry": { "type": "Point", "coordinates": [ -98.06125544, 40.04619986 ] } },
{ "type": "Feature", "properties": { "ARPT_ID": "13K", "ARPT_NAME": "LT WILLIAM M MILLIKEN" }, "geometry": { "type": "Point", "coordinates": [ -96.29202444, 37.85161611 ] } },
{ "type": "Feature", "properties": { "ARPT_ID": "14G", "ARPT_NAME": "FREMONT" }, "geometry": { "type": "Point", "coordinates": [ -83.16119444, 41.33308333 ] } },
{ "type": "Feature", "properties": { "ARPT_ID": "15GA", "ARPT_NAME": "DARLA'S" }, "geometry": { "type": "Point", "coordinates": [ -82.47901861, 32.68016166 ] } },
{ "type": "Feature", "properties": { "ARPT_ID": "18FD", "ARPT_NAME": "SKYPARK ESTATES OWNERS ASSOC" }, "geometry": { "type": "Point", "coordinates": [ -86.66717694, 30.85407416 ] } },
{ "type": "Feature", "properties": { "ARPT_ID": "18V", "ARPT_NAME": "PLATTE VALLEY AIRPARK" }, "geometry": { "type": "Point", "coordinates": [ -104.70119444, 40.10272222 ] } },
{ "type": "Feature", "properties": { "ARPT_ID": "1B0", "ARPT_NAME": "DEXTER RGNL" }, "geometry": { "type": "Point", "coordinates": [ -69.23743666, 45.0045075 ] } },
{ "type": "Feature", "properties": { "ARPT_ID": "1B2", "ARPT_NAME": "KATAMA AIRPARK" }, "geometry": { "type": "Point", "coordinates": [ -70.52447055, 41.35845055 ] } },
{ "type": "Feature", "properties": { "ARPT_ID": "1D1", "ARPT_NAME": "MILBANK MUNI" }, "geometry": { "type": "Point", "coordinates": [ -96.56608333, 45.2305 ] } },
{ "type": "Feature", "properties": { "ARPT_ID": "1D6", "ARPT_NAME": "HECTOR MUNI" }, "geometry": { "type": "Point", "coordinates": [ -94.713786, 44.73110252 ] } },
{ "type": "Feature", "properties": { "ARPT_ID": "1D8", "ARPT_NAME": "REDFIELD MUNI" }, "geometry": { "type": "Point", "coordinates": [ -98.53122833, 44.85656722 ] } },
{ "type": "Feature", "properties": { "ARPT_ID": "1DS", "ARPT_NAME": "DRY SWAMP" }, "geometry": { "type": "Point", "coordinates": [ -80.907025, 33.38426111 ] } },
{ "type": "Feature", "properties": { "ARPT_ID": "1H0", "ARPT_NAME": "CREVE COEUR" }, "geometry": { "type": "Point", "coordinates": [ -90.50841666, 38.72733333 ] } },
{ "type": "Feature", "properties": { "ARPT_ID": "1H8", "ARPT_NAME": "CASEY MUNI" }, "geometry": { "type": "Point", "coordinates": [ -88.00406194, 39.30250916 ] } },
{ "type": "Feature", "properties": { "ARPT_ID": "1K1", "ARPT_NAME": "LLOYD STEARMAN FLD" }, "geometry": { "type": "Point", "coordinates": [ -97.11322222, 37.77444444 ] } },
{ "type": "Feature", "properties": { "ARPT_ID": "1KS4", "ARPT_NAME": "PRICHARD AIRSTRIP" }, "geometry": { "type": "Point", "coordinates": [ -97.11353472, 38.89677222 ] } },
{ "type": "Feature", "properties": { "ARPT_ID": "1M8", "ARPT_NAME": "MYRICKS" }, "geometry": { "type": "Point", "coordinates": [ -71.02647222, 41.83905555 ] } },
{ "type": "Feature", "properties": { "ARPT_ID": "1O5", "ARPT_NAME": "MONTAGUE-YREKA ROHRER FLD" }, "geometry": { "type": "Point", "coordinates": [ -122.54448055, 41.72998333 ] } },
{ "type": "Feature", "properties": { "ARPT_ID": "1XA7", "ARPT_NAME": "GLOSTER AERODROME" }, "geometry": { "type": "Point", "coordinates": [ -96.05918055, 29.73339166 ] } },
{ "type": "Feature", "properties": { "ARPT_ID": "1XS1", "ARPT_NAME": "DUNHAM FLD" }, "geometry": { "type": "Point", "coordinates": [ -95.04648333, 29.93827916 ] } },
{ "type": "Feature", "properties": { "ARPT_ID": "24C", "ARPT_NAME": "LOWELL CITY" }, "geometry": { "type": "Point", "coordinates": [ -85.34561666, 42.95465833 ] } },
{ "type": "Feature", "properties": { "ARPT_ID": "25KS", "ARPT_NAME": "WYRILL FARMING" }, "geometry": { "type": "Point", "coordinates": [ -99.12842194, 39.68334388 ] } },
{ "type": "Feature", "properties": { "ARPT_ID": "25NC", "ARPT_NAME": "SMITH AIR STRIP" }, "geometry": { "type": "Point", "coordinates": [ -79.71, 35.63333333 ] } },
{ "type": "Feature", "properties": { "ARPT_ID": "26IS", "ARPT_NAME": "FICKLIN-AIRTECH" }, "geometry": { "type": "Point", "coordinates": [ -88.50561194, 40.76670083 ] } },
{ "type": "Feature", "properties": { "ARPT_ID": "27IA", "ARPT_NAME": "OLDFIELD AERO" }, "geometry": { "type": "Point", "coordinates": [ -92.03082222, 40.75145138 ] } },
{ "type": "Feature", "properties": { "ARPT_ID": "27XS", "ARPT_NAME": "SPORT FLYERS" }, "geometry": { "type": "Point", "coordinates": [ -95.94997222, 29.838125 ] } },
{ "type": "Feature", "properties": { "ARPT_ID": "29F", "ARPT_NAME": "JOE VAUGHN SPRAYING" }, "geometry": { "type": "Point", "coordinates": [ -101.75991666, 34.39283333 ] } },
{ "type": "Feature", "properties": { "ARPT_ID": "2B1", "ARPT_NAME": "CAPE COD" }, "geometry": { "type": "Point", "coordinates": [ -70.40225, 41.68527777 ] } },
{ "type": "Feature", "properties": { "ARPT_ID": "2B2", "ARPT_NAME": "PLUM ISLAND" }, "geometry": { "type": "Point", "coordinates": [ -70.83944444, 42.79536111 ] } },
{ "type": "Feature", "properties": { "ARPT_ID": "2D1", "ARPT_NAME": "LEE FLD" }, "geometry": { "type": "Point", "coordinates": [ -81.09866697, 40.96997075 ] } },
{ "type": "Feature", "properties": { "ARPT_ID": "2G9", "ARPT_NAME": "SOMERSET COUNTY" }, "geometry": { "type": "Point", "coordinates": [ -79.01529641, 40.03850313 ] } },
{ "type": "Feature", "properties": { "ARPT_ID": "2H0", "ARPT_NAME": "SHELBY COUNTY" }, "geometry": { "type": "Point", "coordinates": [ -88.84552222, 39.41130277 ] } },
{ "type": "Feature", "properties": { "ARPT_ID": "2J9", "ARPT_NAME": "QUINCY MUNI" }, "geometry": { "type": "Point", "coordinates": [ -84.55744027, 30.59788638 ] } },
{ "type": "Feature", "properties": { "ARPT_ID": "2K9", "ARPT_NAME": "HASKELL" }, "geometry": { "type": "Point", "coordinates": [ -95.66741666, 35.83286111 ] } },
{ "type": "Feature", "properties": { "ARPT_ID": "2N5", "ARPT_NAME": "KAMPEL" }, "geometry": { "type": "Point", "coordinates": [ -76.97715, 40.04950972 ] } },
{ "type": "Feature", "properties": { "ARPT_ID": "2NC7", "ARPT_NAME": "SCOTLAND NECK EAST" }, "geometry": { "type": "Point", "coordinates": [ -77.39885833, 36.16793333 ] } },
{ "type": "Feature", "properties": { "ARPT_ID": "2V6", "ARPT_NAME": "YUMA MUNI" }, "geometry": { "type": "Point", "coordinates": [ -102.71443769, 40.10571047 ] } },
{ "type": "Feature", "properties": { "ARPT_ID": "30TE", "ARPT_NAME": "CONE" }, "geometry": { "type": "Point", "coordinates": [ -101.39626861, 33.81119333 ] } },
{ "type": "Feature", "properties": { "ARPT_ID": "30TX", "ARPT_NAME": "BURG LAKE AERO" }, "geometry": { "type": "Point", "coordinates": [ -98.65497222, 30.23236111 ] } },
{ "type": "Feature", "properties": { "ARPT_ID": "33KY", "ARPT_NAME": "BIGGER (STOL)" }, "geometry": { "type": "Point", "coordinates": [ -87.05693972, 37.61227027 ] } },
{ "type": "Feature", "properties": { "ARPT_ID": "33LA", "ARPT_NAME": "SKY RANCH" }, "geometry": { "type": "Point", "coordinates": [ -91.98623166, 30.0696475 ] } },
{ "type": "Feature", "properties": { "ARPT_ID": "34G", "ARPT_NAME": "MERILLAT" }, "geometry": { "type": "Point", "coordinates": [ -83.92521916, 41.975045 ] } },
{ "type": "Feature", "properties": { "ARPT_ID": "34OH", "ARPT_NAME": "AREND" }, "geometry": { "type": "Point", "coordinates": [ -84.64162083, 41.25699444 ] } },
{ "type": "Feature", "properties": { "ARPT_ID": "35NE", "ARPT_NAME": "SHELBURNES" }, "geometry": { "type": "Point", "coordinates": [ -101.80462027, 41.04999361 ] } },
{ "type": "Feature", "properties": { "ARPT_ID": "36K", "ARPT_NAME": "KEARNY COUNTY" }, "geometry": { "type": "Point", "coordinates": [ -101.25558333, 37.96944444 ] } },
{ "type": "Feature", "properties": { "ARPT_ID": "38N", "ARPT_NAME": "SMYRNA" }, "geometry": { "type": "Point", "coordinates": [ -75.58380555, 39.30366666 ] } },
{ "type": "Feature", "properties": { "ARPT_ID": "3CU", "ARPT_NAME": "CABLE UNION" }, "geometry": { "type": "Point", "coordinates": [ -91.24845305, 46.19493305 ] } },
{ "type": "Feature", "properties": { "ARPT_ID": "3D2", "ARPT_NAME": "EPHRAIM/GIBRALTAR" }, "geometry": { "type": "Point", "coordinates": [ -87.18812808, 45.13570747 ] } },
{ "type": "Feature", "properties": { "ARPT_ID": "3DA", "ARPT_NAME": "DALTON" }, "geometry": { "type": "Point", "coordinates": [ -83.80460008, 43.05684069 ] } },
{ "type": "Feature", "properties": { "ARPT_ID": "3EV", "ARPT_NAME": "SKYLANE" }, "geometry": { "type": "Point", "coordinates": [ -87.59486111, 38.01194444 ] } },
{ "type": "Feature", "properties": { "ARPT_ID": "3K3", "ARPT_NAME": "SYRACUSE-HAMILTON COUNTY MUNI" }, "geometry": { "type": "Point", "coordinates": [ -101.74760777, 37.99858305 ] } },
{ "type": "Feature", "properties": { "ARPT_ID": "3K8", "ARPT_NAME": "COMANCHE COUNTY" }, "geometry": { "type": "Point", "coordinates": [ -99.33202777, 37.22286111 ] } },
{ "type": "Feature", "properties": { "ARPT_ID": "3M5", "ARPT_NAME": "MOONTOWN" }, "geometry": { "type": "Point", "coordinates": [ -86.46097222, 34.74736111 ] } },
{ "type": "Feature", "properties": { "ARPT_ID": "3MT4", "ARPT_NAME": "MADDOX RANCH COMPANY" }, "geometry": { "type": "Point", "coordinates": [ -109.06466666, 48.5135 ] } },
{ "type": "Feature", "properties": { "ARPT_ID": "3R7", "ARPT_NAME": "JENNINGS" }, "geometry": { "type": "Point", "coordinates": [ -92.67349927, 30.24269902 ] } },
{ "type": "Feature", "properties": { "ARPT_ID": "3U8", "ARPT_NAME": "BIG SANDY" }, "geometry": { "type": "Point", "coordinates": [ -110.11428386, 48.16343586 ] } },
{ "type": "Feature", "properties": { "ARPT_ID": "40I", "ARPT_NAME": "RED STEWART AIRFIELD" }, "geometry": { "type": "Point", "coordinates": [ -84.12187916, 39.50533777 ] } },
{ "type": "Feature", "properties": { "ARPT_ID": "44G", "ARPT_NAME": "BETZ" }, "geometry": { "type": "Point", "coordinates": [ -83.87076944, 41.8550375 ] } },
{ "type": "Feature", "properties": { "ARPT_ID": "44M", "ARPT_NAME": "TENKILLER LAKE AIRPARK" }, "geometry": { "type": "Point", "coordinates": [ -94.93613888, 35.70497222 ] } },
{ "type": "Feature", "properties": { "ARPT_ID": "46U", "ARPT_NAME": "ALPINE" }, "geometry": { "type": "Point", "coordinates": [ -111.0385, 43.18180555 ] } },
{ "type": "Feature", "properties": { "ARPT_ID": "47IN", "ARPT_NAME": "MANN" }, "geometry": { "type": "Point", "coordinates": [ -87.5180775, 38.98837611 ] } },
{ "type": "Feature", "properties": { "ARPT_ID": "47V", "ARPT_NAME": "CURTIS MUNI" }, "geometry": { "type": "Point", "coordinates": [ -100.47341666, 40.63875 ] } },
{ "type": "Feature", "properties": { "ARPT_ID": "49B", "ARPT_NAME": "STURGIS MUNI" }, "geometry": { "type": "Point", "coordinates": [ -103.37772394, 44.41867697 ] } },
{ "type": "Feature", "properties": { "ARPT_ID": "4D0", "ARPT_NAME": "ABRAMS MUNI" }, "geometry": { "type": "Point", "coordinates": [ -84.73313638, 42.77488194 ] } },
{ "type": "Feature", "properties": { "ARPT_ID": "4D8", "ARPT_NAME": "FULLER" }, "geometry": { "type": "Point", "coordinates": [ -95.1590925, 43.33339388 ] } },
{ "type": "Feature", "properties": { "ARPT_ID": "4E7", "ARPT_NAME": "ELLENDALE MUNI" }, "geometry": { "type": "Point", "coordinates": [ -98.51569444, 46.01633333 ] } },
{ "type": "Feature", "properties": { "ARPT_ID": "4KS", "ARPT_NAME": "WALZ" }, "geometry": { "type": "Point", "coordinates": [ -98.57018055, 37.04516388 ] } },
{ "type": "Feature", "properties": { "ARPT_ID": "4NC2", "ARPT_NAME": "NOLES FLD" }, "geometry": { "type": "Point", "coordinates": [ -78.59281077, 35.54530091 ] } },
{ "type": "Feature", "properties": { "ARPT_ID": "4S2", "ARPT_NAME": "KEN JERNSTEDT AIRFIELD" }, "geometry": { "type": "Point", "coordinates": [ -121.53386386, 45.67277677 ] } },
{ "type": "Feature", "properties": { "ARPT_ID": "4U6", "ARPT_NAME": "CIRCLE TOWN COUNTY" }, "geometry": { "type": "Point", "coordinates": [ -105.56088888, 47.41833333 ] } },
{ "type": "Feature", "properties": { "ARPT_ID": "4V1", "ARPT_NAME": "SPANISH PEAKS AIRFIELD" }, "geometry": { "type": "Point", "coordinates": [ -104.78495963, 37.69652891 ] } },
{ "type": "Feature", "properties": { "ARPT_ID": "50K", "ARPT_NAME": "PAWNEE CITY MUNI" }, "geometry": { "type": "Point", "coordinates": [ -96.19486111, 40.11616666 ] } },
{ "type": "Feature", "properties": { "ARPT_ID": "51D", "ARPT_NAME": "EDGELEY MUNI" }, "geometry": { "type": "Point", "coordinates": [ -98.735, 46.34969444 ] } },
{ "type": "Feature", "properties": { "ARPT_ID": "51M", "ARPT_NAME": "OSCODA COUNTY/DENNIS KAUFFMAN MEML" }, "geometry": { "type": "Point", "coordinates": [ -84.12204166, 44.67483333 ] } },
{ "type": "Feature", "properties": { "ARPT_ID": "52I", "ARPT_NAME": "GROSS" }, "geometry": { "type": "Point", "coordinates": [ -84.01279444, 43.84683888 ] } },
{ "type": "Feature", "properties": { "ARPT_ID": "54AZ", "ARPT_NAME": "SOMERTON" }, "geometry": { "type": "Point", "coordinates": [ -114.66799722, 32.60363611 ] } },
{ "type": "Feature", "properties": { "ARPT_ID": "54J", "ARPT_NAME": "DEFUNIAK SPRINGS" }, "geometry": { "type": "Point", "coordinates": [ -86.15377777, 30.73111111 ] } },
{ "type": "Feature", "properties": { "ARPT_ID": "54MA", "ARPT_NAME": "WOLF RIVER" }, "geometry": { "type": "Point", "coordinates": [ -89.58002638, 35.05402361 ] } },
{ "type": "Feature", "properties": { "ARPT_ID": "54T", "ARPT_NAME": "RWJ AIRPARK" }, "geometry": { "type": "Point", "coordinates": [ -94.84793888, 29.76189444 ] } },
{ "type": "Feature", "properties": { "ARPT_ID": "57C", "ARPT_NAME": "EAST TROY MUNI" }, "geometry": { "type": "Point", "coordinates": [ -88.37261111, 42.79716666 ] } },
{ "type": "Feature", "properties": { "ARPT_ID": "57D", "ARPT_NAME": "RAY COMMUNITY" }, "geometry": { "type": "Point", "coordinates": [ -82.88883755, 42.73675155 ] } },
{ "type": "Feature", "properties": { "ARPT_ID": "58LA", "ARPT_NAME": "SYDAL ACRES" }, "geometry": { "type": "Point", "coordinates": [ -91.16677388, 30.91962361 ] } },
{ "type": "Feature", "properties": { "ARPT_ID": "5NK", "ARPT_NAME": "NAKNEK" }, "geometry": { "type": "Point", "coordinates": [ -157.02521041, 58.73466286 ] } },
{ "type": "Feature", "properties": { "ARPT_ID": "5R7", "ARPT_NAME": "ROY E RAY" }, "geometry": { "type": "Point", "coordinates": [ -88.21119444, 30.45525 ] } },
{ "type": "Feature", "properties": { "ARPT_ID": "61D", "ARPT_NAME": "PLAINWELL MUNI" }, "geometry": { "type": "Point", "coordinates": [ -85.64801344, 42.467791 ] } },
{ "type": "Feature", "properties": { "ARPT_ID": "61NC", "ARPT_NAME": "SOUTHERN COMFORTS AERODROME" }, "geometry": { "type": "Point", "coordinates": [ -78.96558444, 34.871275 ] } },
{ "type": "Feature", "properties": { "ARPT_ID": "62D", "ARPT_NAME": "WARREN" }, "geometry": { "type": "Point", "coordinates": [ -80.92736111, 41.26702777 ] } },
{ "type": "Feature", "properties": { "ARPT_ID": "63C", "ARPT_NAME": "ADAMS COUNTY LEGION FLD" }, "geometry": { "type": "Point", "coordinates": [ -89.78864444, 43.96058808 ] } },
{ "type": "Feature", "properties": { "ARPT_ID": "63S", "ARPT_NAME": "COLVILLE MUNI" }, "geometry": { "type": "Point", "coordinates": [ -117.88352555, 48.5441693 ] } },
{ "type": "Feature", "properties": { "ARPT_ID": "64G", "ARPT_NAME": "PAGE RGNL" }, "geometry": { "type": "Point", "coordinates": [ -97.48191666, 47.17019444 ] } },
{ "type": "Feature", "properties": { "ARPT_ID": "69V", "ARPT_NAME": "HUNTINGTON MUNI" }, "geometry": { "type": "Point", "coordinates": [ -110.91698055, 39.36122472 ] } },
{ "type": "Feature", "properties": { "ARPT_ID": "6B6", "ARPT_NAME": "MINUTE MAN AIR FLD" }, "geometry": { "type": "Point", "coordinates": [ -71.51801188, 42.46038541 ] } },
{ "type": "Feature", "properties": { "ARPT_ID": "6G4", "ARPT_NAME": "WYNKOOP" }, "geometry": { "type": "Point", "coordinates": [ -82.49571805, 40.36506222 ] } },
{ "type": "Feature", "properties": { "ARPT_ID": "6L3", "ARPT_NAME": "LISBON MUNI" }, "geometry": { "type": "Point", "coordinates": [ -97.72821555, 46.44697333 ] } },
{ "type": "Feature", "properties": { "ARPT_ID": "6MN9", "ARPT_NAME": "BENSON" }, "geometry": { "type": "Point", "coordinates": [ -92.99605055, 45.11663333 ] } },
{ "type": "Feature", "properties": { "ARPT_ID": "6S0", "ARPT_NAME": "BIG TIMBER AT HOWARD FLD" }, "geometry": { "type": "Point", "coordinates": [ -109.97825658, 45.80647725 ] } },
{ "type": "Feature", "properties": { "ARPT_ID": "6S8", "ARPT_NAME": "LAUREL MUNI" }, "geometry": { "type": "Point", "coordinates": [ -108.76077111, 45.70517822 ] } },
{ "type": "Feature", "properties": { "ARPT_ID": "6TX4", "ARPT_NAME": "WHITFIELD" }, "geometry": { "type": "Point", "coordinates": [ -101.54433611, 34.3434 ] } },
{ "type": "Feature", "properties": { "ARPT_ID": "6XS2", "ARPT_NAME": "LUSCOMBE ACRES" }, "geometry": { "type": "Point", "coordinates": [ -97.19857769, 32.34624816 ] } },
{ "type": "Feature", "properties": { "ARPT_ID": "78NC", "ARPT_NAME": "FUQUAY/ANGIER FLD" }, "geometry": { "type": "Point", "coordinates": [ -78.75046111, 35.54334444 ] } },
{ "type": "Feature", "properties": { "ARPT_ID": "79S", "ARPT_NAME": "FORT BENTON" }, "geometry": { "type": "Point", "coordinates": [ -110.63686111, 47.84418888 ] } },
{ "type": "Feature", "properties": { "ARPT_ID": "7B3", "ARPT_NAME": "HAMPTON AIRFIELD" }, "geometry": { "type": "Point", "coordinates": [ -70.83015416, 42.96126805 ] } },
{ "type": "Feature", "properties": { "ARPT_ID": "7IS3", "ARPT_NAME": "HOOTERVILLE" }, "geometry": { "type": "Point", "coordinates": [ -89.09175194, 40.14337166 ] } },
{ "type": "Feature", "properties": { "ARPT_ID": "7NC1", "ARPT_NAME": "STAG AIR PARK" }, "geometry": { "type": "Point", "coordinates": [ -77.85026138, 34.52794472 ] } },
{ "type": "Feature", "properties": { "ARPT_ID": "7PN4", "ARPT_NAME": "BLUE KNOB VALLEY" }, "geometry": { "type": "Point", "coordinates": [ -78.4537, 40.39649722 ] } },
{ "type": "Feature", "properties": { "ARPT_ID": "7S6", "ARPT_NAME": "WHITE SULPHUR SPRINGS" }, "geometry": { "type": "Point", "coordinates": [ -110.9119175, 46.49557861 ] } },
{ "type": "Feature", "properties": { "ARPT_ID": "7S9", "ARPT_NAME": "LENHARDT AIRPARK" }, "geometry": { "type": "Point", "coordinates": [ -122.743425, 45.18039833 ] } },
{ "type": "Feature", "properties": { "ARPT_ID": "7Y3", "ARPT_NAME": "BACKUS MUNI" }, "geometry": { "type": "Point", "coordinates": [ -94.50678611, 46.827175 ] } },
{ "type": "Feature", "properties": { "ARPT_ID": "83GA", "ARPT_NAME": "BROCK AIRPARK" }, "geometry": { "type": "Point", "coordinates": [ -84.50611111, 30.99972222 ] } },
{ "type": "Feature", "properties": { "ARPT_ID": "88WI", "ARPT_NAME": "NICOLET" }, "geometry": { "type": "Point", "coordinates": [ -87.86065305, 44.50832694 ] } },
{ "type": "Feature", "properties": { "ARPT_ID": "8AR1", "ARPT_NAME": "TOTTY FLD" }, "geometry": { "type": "Point", "coordinates": [ -92.64222222, 36.48944444 ] } },
{ "type": "Feature", "properties": { "ARPT_ID": "8D1", "ARPT_NAME": "NEW HOLSTEIN MUNI" }, "geometry": { "type": "Point", "coordinates": [ -88.11484169, 43.94410458 ] } },
{ "type": "Feature", "properties": { "ARPT_ID": "8D3", "ARPT_NAME": "SISSETON MUNI" }, "geometry": { "type": "Point", "coordinates": [ -96.99358555, 45.6695275 ] } },
{ "type": "Feature", "properties": { "ARPT_ID": "8D7", "ARPT_NAME": "CLARK COUNTY" }, "geometry": { "type": "Point", "coordinates": [ -97.71047916, 44.89503166 ] } },
{ "type": "Feature", "properties": { "ARPT_ID": "8I3", "ARPT_NAME": "GLENNDALE" }, "geometry": { "type": "Point", "coordinates": [ -86.20332722, 40.43337083 ] } },
{ "type": "Feature", "properties": { "ARPT_ID": "8K2", "ARPT_NAME": "HARPER MUNI" }, "geometry": { "type": "Point", "coordinates": [ -98.04347833, 37.27818638 ] } },
{ "type": "Feature", "properties": { "ARPT_ID": "8KS3", "ARPT_NAME": "DAVIS AIRFIELD" }, "geometry": { "type": "Point", "coordinates": [ -95.48053638, 39.85278111 ] } },
{ "type": "Feature", "properties": { "ARPT_ID": "8NC8", "ARPT_NAME": "LAKE RIDGE AERO PARK" }, "geometry": { "type": "Point", "coordinates": [ -78.78333861, 36.060145 ] } },
{ "type": "Feature", "properties": { "ARPT_ID": "8ND4", "ARPT_NAME": "HEYDE" }, "geometry": { "type": "Point", "coordinates": [ -97.1861875, 48.073595 ] } },
{ "type": "Feature", "properties": { "ARPT_ID": "91NE", "ARPT_NAME": "NORTH OMAHA" }, "geometry": { "type": "Point", "coordinates": [ -96.02249305, 41.36929305 ] } },
{ "type": "Feature", "properties": { "ARPT_ID": "92C", "ARPT_NAME": "CARTER" }, "geometry": { "type": "Point", "coordinates": [ -88.21520258, 44.64106902 ] } },
{ "type": "Feature", "properties": { "ARPT_ID": "92MN", "ARPT_NAME": "BRUTLAG FARMS" }, "geometry": { "type": "Point", "coordinates": [ -96.10172416, 46.01440416 ] } },
{ "type": "Feature", "properties": { "ARPT_ID": "93C", "ARPT_NAME": "RICHLAND" }, "geometry": { "type": "Point", "coordinates": [ -90.29828194, 43.2833575 ] } },
{ "type": "Feature", "properties": { "ARPT_ID": "94Z", "ARPT_NAME": "NOME CITY FLD" }, "geometry": { "type": "Point", "coordinates": [ -165.39023022, 64.51142227 ] } },
{ "type": "Feature", "properties": { "ARPT_ID": "98D", "ARPT_NAME": "ONIDA MUNI" }, "geometry": { "type": "Point", "coordinates": [ -100.10141666, 44.7005 ] } },
{ "type": "Feature", "properties": { "ARPT_ID": "98G", "ARPT_NAME": "SEBEWAING TOWNSHIP" }, "geometry": { "type": "Point", "coordinates": [ -83.46360225, 43.72950752 ] } },
{ "type": "Feature", "properties": { "ARPT_ID": "9D1", "ARPT_NAME": "GREGORY MUNI - FLYNN FLD" }, "geometry": { "type": "Point", "coordinates": [ -99.40342286, 43.22178019 ] } },
{ "type": "Feature", "properties": { "ARPT_ID": "9D2", "ARPT_NAME": "HARDING COUNTY" }, "geometry": { "type": "Point", "coordinates": [ -103.52891019, 45.57955497 ] } },
{ "type": "Feature", "properties": { "ARPT_ID": "9D9", "ARPT_NAME": "HASTINGS" }, "geometry": { "type": "Point", "coordinates": [ -85.34575333, 42.66330611 ] } },
{ "type": "Feature", "properties": { "ARPT_ID": "9G8", "ARPT_NAME": "EBENSBURG" }, "geometry": { "type": "Point", "coordinates": [ -78.77531138, 40.46125416 ] } },
{ "type": "Feature", "properties": { "ARPT_ID": "9I0", "ARPT_NAME": "HAVANA RGNL" }, "geometry": { "type": "Point", "coordinates": [ -90.02278194, 40.22269305 ] } },
{ "type": "Feature", "properties": { "ARPT_ID": "9K7", "ARPT_NAME": "ELLSWORTH MUNI" }, "geometry": { "type": "Point", "coordinates": [ -98.22917166, 38.75098777 ] } },
{ "type": "Feature", "properties": { "ARPT_ID": "9N1", "ARPT_NAME": "VANSANT" }, "geometry": { "type": "Point", "coordinates": [ -75.09961611, 40.48426972 ] } },
{ "type": "Feature", "properties": { "ARPT_ID": "9N7", "ARPT_NAME": "FARMERS PRIDE" }, "geometry": { "type": "Point", "coordinates": [ -76.44162722, 40.44286833 ] } },
{ "type": "Feature", "properties": { "ARPT_ID": "9S7", "ARPT_NAME": "WINIFRED" }, "geometry": { "type": "Point", "coordinates": [ -109.38670972, 47.55538888 ] } },
{ "type": "Feature", "properties": { "ARPT_ID": "9U0", "ARPT_NAME": "TURNER" }, "geometry": { "type": "Point", "coordinates": [ -108.40375277, 48.85031944 ] } },
{ "type": "Feature", "properties": { "ARPT_ID": "9W8", "ARPT_NAME": "BAUBLITZ COMMERCIAL" }, "geometry": { "type": "Point", "coordinates": [ -76.48635333, 39.85232361 ] } },
{ "type": "Feature", "properties": { "ARPT_ID": "A39", "ARPT_NAME": "AK-CHIN RGNL" }, "geometry": { "type": "Point", "coordinates": [ -111.91890138, 32.99054861 ] } },
{ "type": "Feature", "properties": { "ARPT_ID": "ADG", "ARPT_NAME": "LENAWEE COUNTY" }, "geometry": { "type": "Point", "coordinates": [ -84.07730583, 41.86763666 ] } },
{ "type": "Feature", "properties": { "ARPT_ID": "ADT", "ARPT_NAME": "ATWOOD-RAWLINS COUNTY CITY-COUNTY" }, "geometry": { "type": "Point", "coordinates": [ -101.04248291, 39.8403385 ] } },
{ "type": "Feature", "properties": { "ARPT_ID": "AFK", "ARPT_NAME": "NEBRASKA CITY MUNI" }, "geometry": { "type": "Point", "coordinates": [ -95.86666666, 40.60652777 ] } },
{ "type": "Feature", "properties": { "ARPT_ID": "AGZ", "ARPT_NAME": "WAGNER MUNI" }, "geometry": { "type": "Point", "coordinates": [ -98.29638208, 43.06416613 ] } },
{ "type": "Feature", "properties": { "ARPT_ID": "AHQ", "ARPT_NAME": "WAHOO MUNI" }, "geometry": { "type": "Point", "coordinates": [ -96.594555, 41.24060805 ] } },
{ "type": "Feature", "properties": { "ARPT_ID": "AIB", "ARPT_NAME": "HOPKINS FLD" }, "geometry": { "type": "Point", "coordinates": [ -108.56280666, 38.23900222 ] } },
{ "type": "Feature", "properties": { "ARPT_ID": "AIT", "ARPT_NAME": "AITKIN MUNI/STEVE KURTZ FLD" }, "geometry": { "type": "Point", "coordinates": [ -93.67663216, 46.54846194 ] } },
{ "type": "Feature", "properties": { "ARPT_ID": "AJZ", "ARPT_NAME": "BLAKE FLD" }, "geometry": { "type": "Point", "coordinates": [ -108.06201361, 38.78560333 ] } },
{ "type": "Feature", "properties": { "ARPT_ID": "AK59", "ARPT_NAME": "KING RANCH" }, "geometry": { "type": "Point", "coordinates": [ -148.35166666, 61.79111111 ] } },
{ "type": "Feature", "properties": { "ARPT_ID": "ALM", "ARPT_NAME": "ALAMOGORDO-WHITE SANDS RGNL" }, "geometry": { "type": "Point", "coordinates": [ -105.99113888, 32.83941666 ] } },
{ "type": "Feature", "properties": { "ARPT_ID": "ANY", "ARPT_NAME": "ANTHONY MUNI" }, "geometry": { "type": "Point", "coordinates": [ -98.07952638, 37.15989861 ] } },
{ "type": "Feature", "properties": { "ARPT_ID": "APF", "ARPT_NAME": "NAPLES MUNI" }, "geometry": { "type": "Point", "coordinates": [ -81.77563919, 26.1524408 ] } },
{ "type": "Feature", "properties": { "ARPT_ID": "AQO", "ARPT_NAME": "LLANO MUNI" }, "geometry": { "type": "Point", "coordinates": [ -98.65988888, 30.78422222 ] } },
{ "type": "Feature", "properties": { "ARPT_ID": "ARB", "ARPT_NAME": "ANN ARBOR MUNI" }, "geometry": { "type": "Point", "coordinates": [ -83.74570883, 42.22292755 ] } },
{ "type": "Feature", "properties": { "ARPT_ID": "ASY", "ARPT_NAME": "ASHLEY MUNI" }, "geometry": { "type": "Point", "coordinates": [ -99.35257472, 46.02315555 ] } },
{ "type": "Feature", "properties": { "ARPT_ID": "ATA", "ARPT_NAME": "HALL-MILLER MUNI" }, "geometry": { "type": "Point", "coordinates": [ -94.19502777, 33.10252777 ] } },
{ "type": "Feature", "properties": { "ARPT_ID": "AWO", "ARPT_NAME": "ARLINGTON MUNI" }, "geometry": { "type": "Point", "coordinates": [ -122.15902777, 48.16075 ] } },
{ "type": "Feature", "properties": { "ARPT_ID": "AXA", "ARPT_NAME": "ALGONA MUNI" }, "geometry": { "type": "Point", "coordinates": [ -94.27194444, 43.07791666 ] } },
{ "type": "Feature", "properties": { "ARPT_ID": "AZ19", "ARPT_NAME": "WOODS BAY WINERY" }, "geometry": { "type": "Point", "coordinates": [ -109.70114666, 32.0849835 ] } },
{ "type": "Feature", "properties": { "ARPT_ID": "BAC", "ARPT_NAME": "BARNES COUNTY MUNI" }, "geometry": { "type": "Point", "coordinates": [ -98.01793111, 46.94119194 ] } },
{ "type": "Feature", "properties": { "ARPT_ID": "BBD", "ARPT_NAME": "CURTIS FLD" }, "geometry": { "type": "Point", "coordinates": [ -99.32391666, 31.17927777 ] } },
{ "type": "Feature", "properties": { "ARPT_ID": "BDH", "ARPT_NAME": "WILLMAR MUNI/JOHN L RICE FLD" }, "geometry": { "type": "Point", "coordinates": [ -95.12933333, 45.11702777 ] } },
{ "type": "Feature", "properties": { "ARPT_ID": "BEA", "ARPT_NAME": "BEEVILLE MUNI" }, "geometry": { "type": "Point", "coordinates": [ -97.79194444, 28.36422222 ] } },
{ "type": "Feature", "properties": { "ARPT_ID": "BET", "ARPT_NAME": "BETHEL" }, "geometry": { "type": "Point", "coordinates": [ -161.83716666, 60.77855555 ] } },
{ "type": "Feature", "properties": { "ARPT_ID": "BUU", "ARPT_NAME": "BURLINGTON MUNI" }, "geometry": { "type": "Point", "coordinates": [ -88.30468252, 42.69071711 ] } },
{ "type": "Feature", "properties": { "ARPT_ID": "BWP", "ARPT_NAME": "HARRY STERN" }, "geometry": { "type": "Point", "coordinates": [ -96.60715594, 46.24429377 ] } },
{ "type": "Feature", "properties": { "ARPT_ID": "BZN", "ARPT_NAME": "BOZEMAN YELLOWSTONE INTL" }, "geometry": { "type": "Point", "coordinates": [ -111.15026027, 45.77723577 ] } },
{ "type": "Feature", "properties": { "ARPT_ID": "C04", "ARPT_NAME": "OCEANA COUNTY" }, "geometry": { "type": "Point", "coordinates": [ -86.32906611, 43.64163333 ] } },
{ "type": "Feature", "properties": { "ARPT_ID": "C08", "ARPT_NAME": "SILVER WEST" }, "geometry": { "type": "Point", "coordinates": [ -105.37427222, 38.01327777 ] } },
{ "type": "Feature", "properties": { "ARPT_ID": "C16", "ARPT_NAME": "FRASCA FLD" }, "geometry": { "type": "Point", "coordinates": [ -88.19848758, 40.14639977 ] } },
{ "type": "Feature", "properties": { "ARPT_ID": "C20", "ARPT_NAME": "ANDREWS UNIVERSITY AIRPARK" }, "geometry": { "type": "Point", "coordinates": [ -86.36808333, 41.95105555 ] } },
{ "type": "Feature", "properties": { "ARPT_ID": "C29", "ARPT_NAME": "MIDDLETON MUNI/MOREY FLD" }, "geometry": { "type": "Point", "coordinates": [ -89.53164888, 43.11433 ] } },
{ "type": "Feature", "properties": { "ARPT_ID": "C40", "ARPT_NAME": "MILLER" }, "geometry": { "type": "Point", "coordinates": [ -85.24997083, 40.71671333 ] } },
{ "type": "Feature", "properties": { "ARPT_ID": "C77", "ARPT_NAME": "POPLAR GROVE" }, "geometry": { "type": "Point", "coordinates": [ -88.83630555, 42.32286111 ] } },
{ "type": "Feature", "properties": { "ARPT_ID": "C81", "ARPT_NAME": "CAMPBELL" }, "geometry": { "type": "Point", "coordinates": [ -88.07408805, 42.32461111 ] } },
{ "type": "Feature", "properties": { "ARPT_ID": "C89", "ARPT_NAME": "SYLVANIA" }, "geometry": { "type": "Point", "coordinates": [ -87.95897222, 42.70325 ] } },
{ "type": "Feature", "properties": { "ARPT_ID": "C97", "ARPT_NAME": "LOWELL" }, "geometry": { "type": "Point", "coordinates": [ -87.50769444, 41.23016944 ] } },
{ "type": "Feature", "properties": { "ARPT_ID": "CAD", "ARPT_NAME": "WEXFORD COUNTY" }, "geometry": { "type": "Point", "coordinates": [ -85.41891666, 44.27533333 ] } },
{ "type": "Feature", "properties": { "ARPT_ID": "CAV", "ARPT_NAME": "CLARION MUNI" }, "geometry": { "type": "Point", "coordinates": [ -93.75905555, 42.74047222 ] } },
{ "type": "Feature", "properties": { "ARPT_ID": "CBE", "ARPT_NAME": "GREATER CUMBERLAND RGNL" }, "geometry": { "type": "Point", "coordinates": [ -78.76147833, 39.61530583 ] } },
{ "type": "Feature", "properties": { "ARPT_ID": "CBK", "ARPT_NAME": "SHALZ FLD" }, "geometry": { "type": "Point", "coordinates": [ -101.04661972, 39.42745861 ] } },
{ "type": "Feature", "properties": { "ARPT_ID": "CEV", "ARPT_NAME": "METTEL FLD" }, "geometry": { "type": "Point", "coordinates": [ -85.13113888, 39.69819444 ] } },
{ "type": "Feature", "properties": { "ARPT_ID": "CFS", "ARPT_NAME": "TUSCOLA AREA" }, "geometry": { "type": "Point", "coordinates": [ -83.44544666, 43.45886083 ] } },
{ "type": "Feature", "properties": { "ARPT_ID": "CGC", "ARPT_NAME": "CRYSTAL RIVER-CAPT TOM DAVIS FLD" }, "geometry": { "type": "Point", "coordinates": [ -82.57411111, 28.86761111 ] } },
{ "type": "Feature", "properties": { "ARPT_ID": "CKN", "ARPT_NAME": "CROOKSTON MUNI/KIRKWOOD FLD" }, "geometry": { "type": "Point", "coordinates": [ -96.62145361, 47.84165722 ] } },
{ "type": "Feature", "properties": { "ARPT_ID": "CKP", "ARPT_NAME": "CHEROKEE COUNTY RGNL" }, "geometry": { "type": "Point", "coordinates": [ -95.55605555, 42.73138888 ] } },
{ "type": "Feature", "properties": { "ARPT_ID": "CLI", "ARPT_NAME": "CLINTONVILLE MUNI" }, "geometry": { "type": "Point", "coordinates": [ -88.73088888, 44.61316666 ] } },
{ "type": "Feature", "properties": { "ARPT_ID": "CLK", "ARPT_NAME": "CLINTON RGNL" }, "geometry": { "type": "Point", "coordinates": [ -98.93278855, 35.53827255 ] } },
{ "type": "Feature", "properties": { "ARPT_ID": "CNK", "ARPT_NAME": "BLOSSER MUNI" }, "geometry": { "type": "Point", "coordinates": [ -97.65204055, 39.54986777 ] } },
{ "type": "Feature", "properties": { "ARPT_ID": "CO00", "ARPT_NAME": "FLAGLER AERIAL SPRAYING INC" }, "geometry": { "type": "Point", "coordinates": [ -103.06660222, 39.27999083 ] } },
{ "type": "Feature", "properties": { "ARPT_ID": "CO4", "ARPT_NAME": "COLORADO SPRINGS EAST" }, "geometry": { "type": "Point", "coordinates": [ -104.40984375, 38.87425 ] } },
{ "type": "Feature", "properties": { "ARPT_ID": "CQM", "ARPT_NAME": "COOK MUNI" }, "geometry": { "type": "Point", "coordinates": [ -92.689525, 47.82228169 ] } },
{ "type": "Feature", "properties": { "ARPT_ID": "CRC", "ARPT_NAME": "CIRCLE CITY" }, "geometry": { "type": "Point", "coordinates": [ -144.076197220000012, 65.82791666 ] } },
{ "type": "Feature", "properties": { "ARPT_ID": "CRS", "ARPT_NAME": "C DAVID CAMPBELL FLD-CORSICANA MUNI" }, "geometry": { "type": "Point", "coordinates": [ -96.40058333, 32.02805555 ] } },
{ "type": "Feature", "properties": { "ARPT_ID": "CSB", "ARPT_NAME": "CAMBRIDGE MUNI" }, "geometry": { "type": "Point", "coordinates": [ -100.16207222, 40.30658194 ] } },
{ "type": "Feature", "properties": { "ARPT_ID": "CYMA", "ARPT_NAME": "MAYO" }, "geometry": { "type": "Point", "coordinates": [ -135.868333330000013, 63.61638888 ] } },
{ "type": "Feature", "properties": { "ARPT_ID": "CYOC", "ARPT_NAME": "OLD CROW" }, "geometry": { "type": "Point", "coordinates": [ -139.84, 67.57 ] } },
{ "type": "Feature", "properties": { "ARPT_ID": "CYRP", "ARPT_NAME": "CARP" }, "geometry": { "type": "Point", "coordinates": [ -76.02222222, 45.31916666 ] } },
{ "type": "Feature", "properties": { "ARPT_ID": "CZD", "ARPT_NAME": "COZAD MUNI" }, "geometry": { "type": "Point", "coordinates": [ -100.00425138, 40.8695925 ] } },
{ "type": "Feature", "properties": { "ARPT_ID": "D09", "ARPT_NAME": "BOTTINEAU MUNI" }, "geometry": { "type": "Point", "coordinates": [ -100.41730555, 48.83047222 ] } },
{ "type": "Feature", "properties": { "ARPT_ID": "D25", "ARPT_NAME": "MANITOWISH WATERS" }, "geometry": { "type": "Point", "coordinates": [ -89.88219997, 46.12022705 ] } },
{ "type": "Feature", "properties": { "ARPT_ID": "D39", "ARPT_NAME": "SAUK CENTRE MUNI" }, "geometry": { "type": "Point", "coordinates": [ -94.93324647, 45.70660266 ] } },
{ "type": "Feature", "properties": { "ARPT_ID": "D50", "ARPT_NAME": "CROSBY MUNI" }, "geometry": { "type": "Point", "coordinates": [ -103.29758091, 48.92829927 ] } },
{ "type": "Feature", "properties": { "ARPT_ID": "D55", "ARPT_NAME": "ROBERTSON FLD" }, "geometry": { "type": "Point", "coordinates": [ -98.39376916, 48.75313063 ] } },
{ "type": "Feature", "properties": { "ARPT_ID": "D95", "ARPT_NAME": "DUPONT/LAPEER" }, "geometry": { "type": "Point", "coordinates": [ -83.27155555, 43.06647222 ] } },
{ "type": "Feature", "properties": { "ARPT_ID": "DLL", "ARPT_NAME": "BARABOO/WISCONSIN DELLS RGNL" }, "geometry": { "type": "Point", "coordinates": [ -89.77125, 43.52202777 ] } },
{ "type": "Feature", "properties": { "ARPT_ID": "DLS", "ARPT_NAME": "COLUMBIA GORGE RGNL/THE DALLES MUNI" }, "geometry": { "type": "Point", "coordinates": [ -121.16827572, 45.61935516 ] } },
{ "type": "Feature", "properties": { "ARPT_ID": "DTL", "ARPT_NAME": "DETROIT LAKES/WETHING FLD" }, "geometry": { "type": "Point", "coordinates": [ -95.88278583, 46.82304611 ] } },
{ "type": "Feature", "properties": { "ARPT_ID": "EAG", "ARPT_NAME": "EAGLE GROVE MUNI" }, "geometry": { "type": "Point", "coordinates": [ -93.91611111, 42.70991666 ] } },
{ "type": "Feature", "properties": { "ARPT_ID": "EBS", "ARPT_NAME": "WEBSTER CITY MUNI" }, "geometry": { "type": "Point", "coordinates": [ -93.86896702, 42.43641352 ] } },
{ "type": "Feature", "properties": { "ARPT_ID": "EGQ", "ARPT_NAME": "EMMETSBURG MUNI" }, "geometry": { "type": "Point", "coordinates": [ -94.70452777, 43.10205555 ] } },
{ "type": "Feature", "properties": { "ARPT_ID": "EKM", "ARPT_NAME": "ELKHART MUNI" }, "geometry": { "type": "Point", "coordinates": [ -86.00321897, 41.71940616 ] } },
{ "type": "Feature", "properties": { "ARPT_ID": "ELM", "ARPT_NAME": "ELMIRA/CORNING RGNL" }, "geometry": { "type": "Point", "coordinates": [ -76.89174777, 42.15985472 ] } },
{ "type": "Feature", "properties": { "ARPT_ID": "EMM", "ARPT_NAME": "KEMMERER MUNI" }, "geometry": { "type": "Point", "coordinates": [ -110.55694444, 41.82408333 ] } },
{ "type": "Feature", "properties": { "ARPT_ID": "EMP", "ARPT_NAME": "EMPORIA MUNI" }, "geometry": { "type": "Point", "coordinates": [ -96.18993194, 38.33056333 ] } },
{ "type": "Feature", "properties": { "ARPT_ID": "ENA", "ARPT_NAME": "KENAI MUNI" }, "geometry": { "type": "Point", "coordinates": [ -151.24483333, 60.57327777 ] } },
{ "type": "Feature", "properties": { "ARPT_ID": "ENN", "ARPT_NAME": "NENANA MUNI" }, "geometry": { "type": "Point", "coordinates": [ -149.073925, 64.5473 ] } },
{ "type": "Feature", "properties": { "ARPT_ID": "EPM", "ARPT_NAME": "EASTPORT MUNI" }, "geometry": { "type": "Point", "coordinates": [ -67.01269444, 44.91011111 ] } },
{ "type": "Feature", "properties": { "ARPT_ID": "ERY", "ARPT_NAME": "LUCE COUNTY" }, "geometry": { "type": "Point", "coordinates": [ -85.45716666, 46.311 ] } },
{ "type": "Feature", "properties": { "ARPT_ID": "EVY", "ARPT_NAME": "SUMMIT" }, "geometry": { "type": "Point", "coordinates": [ -75.72366666, 39.52102777 ] } },
{ "type": "Feature", "properties": { "ARPT_ID": "F01", "ARPT_NAME": "QUANAH MUNI" }, "geometry": { "type": "Point", "coordinates": [ -99.75968166, 34.27711083 ] } },
{ "type": "Feature", "properties": { "ARPT_ID": "F06", "ARPT_NAME": "MARIAN AIRPARK" }, "geometry": { "type": "Point", "coordinates": [ -100.19519102, 34.84486563 ] } },
{ "type": "Feature", "properties": { "ARPT_ID": "F14", "ARPT_NAME": "WICHITA VALLEY" }, "geometry": { "type": "Point", "coordinates": [ -98.61614766, 33.94761047 ] } },
{ "type": "Feature", "properties": { "ARPT_ID": "F37", "ARPT_NAME": "CARRIZOZO MUNI" }, "geometry": { "type": "Point", "coordinates": [ -105.89622, 33.64890277 ] } },
{ "type": "Feature", "properties": { "ARPT_ID": "F45", "ARPT_NAME": "NORTH PALM BEACH COUNTY GENERAL AVIATION" }, "geometry": { "type": "Point", "coordinates": [ -80.22233333, 26.84591666 ] } },
{ "type": "Feature", "properties": { "ARPT_ID": "F49", "ARPT_NAME": "CITY OF SLATON/LARRY T NEAL MEML" }, "geometry": { "type": "Point", "coordinates": [ -101.66167777, 33.48523272 ] } },
{ "type": "Feature", "properties": { "ARPT_ID": "F56", "ARPT_NAME": "ARLEDGE FLD" }, "geometry": { "type": "Point", "coordinates": [ -99.73416666, 32.91047222 ] } },
{ "type": "Feature", "properties": { "ARPT_ID": "F82", "ARPT_NAME": "LUBBOCK EXEC AIRPARK" }, "geometry": { "type": "Point", "coordinates": [ -101.81304452, 33.48377747 ] } },
{ "type": "Feature", "properties": { "ARPT_ID": "FAI", "ARPT_NAME": "FAIRBANKS INTL" }, "geometry": { "type": "Point", "coordinates": [ -147.85666666, 64.81535555 ] } },
{ "type": "Feature", "properties": { "ARPT_ID": "FBL", "ARPT_NAME": "FARIBAULT MUNI-LIZ WALL STROHFUS FLD" }, "geometry": { "type": "Point", "coordinates": [ -93.31307363, 44.32896938 ] } },
{ "type": "Feature", "properties": { "ARPT_ID": "FBR", "ARPT_NAME": "FORT BRIDGER" }, "geometry": { "type": "Point", "coordinates": [ -110.40597222, 41.39333333 ] } },
{ "type": "Feature", "properties": { "ARPT_ID": "FBY", "ARPT_NAME": "FAIRBURY MUNI" }, "geometry": { "type": "Point", "coordinates": [ -97.16788888, 40.18197222 ] } },
{ "type": "Feature", "properties": { "ARPT_ID": "FD20", "ARPT_NAME": "SUNDANCE FARMS" }, "geometry": { "type": "Point", "coordinates": [ -81.48507666, 26.80034194 ] } },
{ "type": "Feature", "properties": { "ARPT_ID": "FD77", "ARPT_NAME": "WIMAUMA AIR PARK" }, "geometry": { "type": "Point", "coordinates": [ -82.28286861, 27.71197527 ] } },
{ "type": "Feature", "properties": { "ARPT_ID": "FFL", "ARPT_NAME": "FAIRFIELD MUNI" }, "geometry": { "type": "Point", "coordinates": [ -91.9808218, 41.05571983 ] } },
{ "type": "Feature", "properties": { "ARPT_ID": "FL54", "ARPT_NAME": "FLYING TIGER FLD" }, "geometry": { "type": "Point", "coordinates": [ -82.41066666, 29.93551666 ] } },
{ "type": "Feature", "properties": { "ARPT_ID": "FMM", "ARPT_NAME": "FORT MORGAN MUNI" }, "geometry": { "type": "Point", "coordinates": [ -103.80416666, 40.33544444 ] } },
{ "type": "Feature", "properties": { "ARPT_ID": "FOA", "ARPT_NAME": "FLORA MUNI" }, "geometry": { "type": "Point", "coordinates": [ -88.45311202, 38.66499022 ] } },
{ "type": "Feature", "properties": { "ARPT_ID": "FST", "ARPT_NAME": "FORT STOCKTON-PECOS COUNTY" }, "geometry": { "type": "Point", "coordinates": [ -102.91277777, 30.91525 ] } },
{ "type": "Feature", "properties": { "ARPT_ID": "FWS", "ARPT_NAME": "FORT WORTH SPINKS" }, "geometry": { "type": "Point", "coordinates": [ -97.30843944, 32.56513361 ] } },
{ "type": "Feature", "properties": { "ARPT_ID": "GA2", "ARPT_NAME": "PEACH STATE AERODROME" }, "geometry": { "type": "Point", "coordinates": [ -84.37159027, 33.18345305 ] } },
{ "type": "Feature", "properties": { "ARPT_ID": "GAF", "ARPT_NAME": "HUTSON FLD" }, "geometry": { "type": "Point", "coordinates": [ -97.37095666, 48.40471555 ] } },
{ "type": "Feature", "properties": { "ARPT_ID": "GBG", "ARPT_NAME": "GALESBURG MUNI" }, "geometry": { "type": "Point", "coordinates": [ -90.43112358, 40.93800052 ] } },
{ "type": "Feature", "properties": { "ARPT_ID": "GDW", "ARPT_NAME": "GLADWIN ZETTEL MEML" }, "geometry": { "type": "Point", "coordinates": [ -84.47501972, 43.97058944 ] } },
{ "type": "Feature", "properties": { "ARPT_ID": "GHW", "ARPT_NAME": "GLENWOOD MUNI" }, "geometry": { "type": "Point", "coordinates": [ -95.32044891, 45.64383013 ] } },
{ "type": "Feature", "properties": { "ARPT_ID": "GKN", "ARPT_NAME": "GULKANA" }, "geometry": { "type": "Point", "coordinates": [ -145.45529166, 62.15433472 ] } },
{ "type": "Feature", "properties": { "ARPT_ID": "GLD", "ARPT_NAME": "RENNER FLD/GOODLAND MUNI" }, "geometry": { "type": "Point", "coordinates": [ -101.69873388, 39.37074083 ] } },
{ "type": "Feature", "properties": { "ARPT_ID": "GPZ", "ARPT_NAME": "GRAND RAPIDS/ITASCA COUNTY-GORDON NEWSTROM FLD" }, "geometry": { "type": "Point", "coordinates": [ -93.50994472, 47.20928388 ] } },
{ "type": "Feature", "properties": { "ARPT_ID": "GRE", "ARPT_NAME": "GREENVILLE" }, "geometry": { "type": "Point", "coordinates": [ -89.37888888, 38.83622222 ] } },
{ "type": "Feature", "properties": { "ARPT_ID": "GSH", "ARPT_NAME": "GOSHEN MUNI" }, "geometry": { "type": "Point", "coordinates": [ -85.79427016, 41.52613341 ] } },
{ "type": "Feature", "properties": { "ARPT_ID": "GTE", "ARPT_NAME": "GOTHENBURG MUNI" }, "geometry": { "type": "Point", "coordinates": [ -100.14656944, 40.92548333 ] } },
{ "type": "Feature", "properties": { "ARPT_ID": "GUC", "ARPT_NAME": "GUNNISON-CRESTED BUTTE RGNL" }, "geometry": { "type": "Point", "coordinates": [ -106.93175, 38.53433333 ] } },
{ "type": "Feature", "properties": { "ARPT_ID": "GWR", "ARPT_NAME": "GWINNER-ROGER MELROE FLD" }, "geometry": { "type": "Point", "coordinates": [ -97.64336111, 46.21827777 ] } },
{ "type": "Feature", "properties": { "ARPT_ID": "H81", "ARPT_NAME": "RIVER FALLS" }, "geometry": { "type": "Point", "coordinates": [ -101.75579736, 35.08142538 ] } },
{ "type": "Feature", "properties": { "ARPT_ID": "HDE", "ARPT_NAME": "BREWSTER FLD" }, "geometry": { "type": "Point", "coordinates": [ -99.33602777, 40.4518075 ] } },
{ "type": "Feature", "properties": { "ARPT_ID": "HFD", "ARPT_NAME": "HARTFORD-BRAINARD" }, "geometry": { "type": "Point", "coordinates": [ -72.64944444, 41.73672222 ] } },
{ "type": "Feature", "properties": { "ARPT_ID": "HJH", "ARPT_NAME": "HEBRON MUNI" }, "geometry": { "type": "Point", "coordinates": [ -97.58452777, 40.15194444 ] } },
{ "type": "Feature", "properties": { "ARPT_ID": "HLN", "ARPT_NAME": "HELENA RGNL" }, "geometry": { "type": "Point", "coordinates": [ -111.98327777, 46.60672222 ] } },
{ "type": "Feature", "properties": { "ARPT_ID": "HNR", "ARPT_NAME": "HARLAN MUNI" }, "geometry": { "type": "Point", "coordinates": [ -95.33969444, 41.58436111 ] } },
{ "type": "Feature", "properties": { "ARPT_ID": "HRX", "ARPT_NAME": "HEREFORD MUNI" }, "geometry": { "type": "Point", "coordinates": [ -102.32588325, 34.86069888 ] } },
{ "type": "Feature", "properties": { "ARPT_ID": "HXF", "ARPT_NAME": "HARTFORD MUNI" }, "geometry": { "type": "Point", "coordinates": [ -88.39024083, 43.35004722 ] } },
{ "type": "Feature", "properties": { "ARPT_ID": "HYR", "ARPT_NAME": "SAWYER COUNTY" }, "geometry": { "type": "Point", "coordinates": [ -91.44426497, 46.02526608 ] } },
{ "type": "Feature", "properties": { "ARPT_ID": "I17", "ARPT_NAME": "PIQUA/HARTZELL FLD" }, "geometry": { "type": "Point", "coordinates": [ -84.30841666, 40.16469444 ] } },
{ "type": "Feature", "properties": { "ARPT_ID": "I69", "ARPT_NAME": "CLERMONT COUNTY" }, "geometry": { "type": "Point", "coordinates": [ -84.21022222, 39.07838888 ] } },
{ "type": "Feature", "properties": { "ARPT_ID": "ICR", "ARPT_NAME": "WINNER RGNL" }, "geometry": { "type": "Point", "coordinates": [ -99.84121441, 43.38948466 ] } },
{ "type": "Feature", "properties": { "ARPT_ID": "ID82", "ARPT_NAME": "PICABO" }, "geometry": { "type": "Point", "coordinates": [ -114.06336777, 43.30823833 ] } },
{ "type": "Feature", "properties": { "ARPT_ID": "ID87", "ARPT_NAME": "RAINBOW RANCH" }, "geometry": { "type": "Point", "coordinates": [ -111.97441277, 43.40685972 ] } },
{ "type": "Feature", "properties": { "ARPT_ID": "IG05", "ARPT_NAME": "WHEELER" }, "geometry": { "type": "Point", "coordinates": [ -86.60695583, 41.18976333 ] } },
{ "type": "Feature", "properties": { "ARPT_ID": "IGG", "ARPT_NAME": "IGIUGIG" }, "geometry": { "type": "Point", "coordinates": [ -155.90177277, 59.32404166 ] } },
{ "type": "Feature", "properties": { "ARPT_ID": "IN46", "ARPT_NAME": "BUTLER FLD" }, "geometry": { "type": "Point", "coordinates": [ -87.21945861, 39.73892916 ] } },
{ "type": "Feature", "properties": { "ARPT_ID": "IRK", "ARPT_NAME": "KIRKSVILLE RGNL" }, "geometry": { "type": "Point", "coordinates": [ -92.54491666, 40.09347222 ] } },
{ "type": "Feature", "properties": { "ARPT_ID": "IS65", "ARPT_NAME": "WOODLAKE LANDING" }, "geometry": { "type": "Point", "coordinates": [ -88.64452083, 41.63836333 ] } },
{ "type": "Feature", "properties": { "ARPT_ID": "ISW", "ARPT_NAME": "ALEXANDER FLD SOUTH WOOD COUNTY" }, "geometry": { "type": "Point", "coordinates": [ -89.83903944, 44.360355 ] } },
{ "type": "Feature", "properties": { "ARPT_ID": "K01", "ARPT_NAME": "FARINGTON FLD" }, "geometry": { "type": "Point", "coordinates": [ -95.788, 40.38666666 ] } },
{ "type": "Feature", "properties": { "ARPT_ID": "K08", "ARPT_NAME": "HOLLY" }, "geometry": { "type": "Point", "coordinates": [ -102.11667083, 38.03512361 ] } },
{ "type": "Feature", "properties": { "ARPT_ID": "K23", "ARPT_NAME": "COOPERSTOWN-WESTVILLE" }, "geometry": { "type": "Point", "coordinates": [ -74.89098777, 42.6292425 ] } },
{ "type": "Feature", "properties": { "ARPT_ID": "K34", "ARPT_NAME": "GARDNER MUNI" }, "geometry": { "type": "Point", "coordinates": [ -94.95674944, 38.80684833 ] } },
{ "type": "Feature", "properties": { "ARPT_ID": "K50", "ARPT_NAME": "COOK AIRFIELD" }, "geometry": { "type": "Point", "coordinates": [ -97.17461111, 37.56538888 ] } },
{ "type": "Feature", "properties": { "ARPT_ID": "K58", "ARPT_NAME": "HAROLD KRIER FLD" }, "geometry": { "type": "Point", "coordinates": [ -99.77512805, 37.16669361 ] } },
{ "type": "Feature", "properties": { "ARPT_ID": "K61", "ARPT_NAME": "MORITZ MEML" }, "geometry": { "type": "Point", "coordinates": [ -98.12875638, 39.47160166 ] } },
{ "type": "Feature", "properties": { "ARPT_ID": "K64", "ARPT_NAME": "VINLAND VALLEY AERODROME" }, "geometry": { "type": "Point", "coordinates": [ -95.18203611, 38.83613055 ] } },
{ "type": "Feature", "properties": { "ARPT_ID": "K68", "ARPT_NAME": "GARNETT MUNI" }, "geometry": { "type": "Point", "coordinates": [ -95.21522222, 38.27730555 ] } },
{ "type": "Feature", "properties": { "ARPT_ID": "K71", "ARPT_NAME": "LINCOLN MUNI" }, "geometry": { "type": "Point", "coordinates": [ -98.16699722, 39.05806194 ] } },
{ "type": "Feature", "properties": { "ARPT_ID": "K75", "ARPT_NAME": "OSBORNE MUNI" }, "geometry": { "type": "Point", "coordinates": [ -98.68001805, 39.43329305 ] } },
{ "type": "Feature", "properties": { "ARPT_ID": "K81", "ARPT_NAME": "MIAMI COUNTY" }, "geometry": { "type": "Point", "coordinates": [ -94.92022333, 38.54064138 ] } },
{ "type": "Feature", "properties": { "ARPT_ID": "K83", "ARPT_NAME": "SABETHA MUNI" }, "geometry": { "type": "Point", "coordinates": [ -95.77669444, 39.90544444 ] } },
{ "type": "Feature", "properties": { "ARPT_ID": "LAL", "ARPT_NAME": "LAKELAND LINDER INTL" }, "geometry": { "type": "Point", "coordinates": [ -82.019, 27.98763888 ] } },
{ "type": "Feature", "properties": { "ARPT_ID": "LEM", "ARPT_NAME": "LEMMON MUNI" }, "geometry": { "type": "Point", "coordinates": [ -102.10553644, 45.91838052 ] } },
{ "type": "Feature", "properties": { "ARPT_ID": "LHD", "ARPT_NAME": "LAKE HOOD" }, "geometry": { "type": "Point", "coordinates": [ -149.96539363, 61.18663919 ] } },
{ "type": "Feature", "properties": { "ARPT_ID": "LHV", "ARPT_NAME": "WILLIAM T PIPER MEML" }, "geometry": { "type": "Point", "coordinates": [ -77.42230555, 41.13577777 ] } },
{ "type": "Feature", "properties": { "ARPT_ID": "LL45", "ARPT_NAME": "LINDELL LOVELESS" }, "geometry": { "type": "Point", "coordinates": [ -89.82176277, 39.18226944 ] } },
{ "type": "Feature", "properties": { "ARPT_ID": "LNL", "ARPT_NAME": "KINGS LAND O' LAKES" }, "geometry": { "type": "Point", "coordinates": [ -89.211965, 46.1541175 ] } },
{ "type": "Feature", "properties": { "ARPT_ID": "LQR", "ARPT_NAME": "LARNED-PAWNEE COUNTY" }, "geometry": { "type": "Point", "coordinates": [ -99.08591408, 38.20860408 ] } },
{ "type": "Feature", "properties": { "ARPT_ID": "LS40", "ARPT_NAME": "ST CHARLES" }, "geometry": { "type": "Point", "coordinates": [ -90.28611111, 29.95194444 ] } },
{ "type": "Feature", "properties": { "ARPT_ID": "LSB", "ARPT_NAME": "LORDSBURG MUNI" }, "geometry": { "type": "Point", "coordinates": [ -108.69173416, 32.33346277 ] } },
{ "type": "Feature", "properties": { "ARPT_ID": "LTY", "ARPT_NAME": "LIBERTY COUNTY" }, "geometry": { "type": "Point", "coordinates": [ -110.99086388, 48.51072222 ] } },
{ "type": "Feature", "properties": { "ARPT_ID": "LVM", "ARPT_NAME": "MISSION FLD" }, "geometry": { "type": "Point", "coordinates": [ -110.44802777, 45.69941666 ] } },
{ "type": "Feature", "properties": { "ARPT_ID": "LWA", "ARPT_NAME": "SOUTH HAVEN AREA RGNL" }, "geometry": { "type": "Point", "coordinates": [ -86.2557375, 42.35132638 ] } },
{ "type": "Feature", "properties": { "ARPT_ID": "LWL", "ARPT_NAME": "WELLS MUNI/HARRIET FLD" }, "geometry": { "type": "Point", "coordinates": [ -114.92213888, 41.11711111 ] } },
{ "type": "Feature", "properties": { "ARPT_ID": "LWT", "ARPT_NAME": "LEWISTOWN MUNI" }, "geometry": { "type": "Point", "coordinates": [ -109.46669444, 47.04925 ] } },
{ "type": "Feature", "properties": { "ARPT_ID": "LXL", "ARPT_NAME": "LITTLE FALLS/MORRISON COUNTY-LINDBERGH FLD" }, "geometry": { "type": "Point", "coordinates": [ -94.34703638, 45.949065 ] } },
{ "type": "Feature", "properties": { "ARPT_ID": "LXN", "ARPT_NAME": "JIM KELLY FLD" }, "geometry": { "type": "Point", "coordinates": [ -99.77591416, 40.79042361 ] } },
{ "type": "Feature", "properties": { "ARPT_ID": "M28", "ARPT_NAME": "MID CONTINENT" }, "geometry": { "type": "Point", "coordinates": [ -89.72883333, 36.22425 ] } },
{ "type": "Feature", "properties": { "ARPT_ID": "M54", "ARPT_NAME": "LEBANON MUNI" }, "geometry": { "type": "Point", "coordinates": [ -86.31569041, 36.19041122 ] } },
{ "type": "Feature", "properties": { "ARPT_ID": "MA36", "ARPT_NAME": "SNOW" }, "geometry": { "type": "Point", "coordinates": [ -70.85296666, 42.6664825 ] } },
{ "type": "Feature", "properties": { "ARPT_ID": "MBG", "ARPT_NAME": "MOBRIDGE MUNI" }, "geometry": { "type": "Point", "coordinates": [ -100.40627777, 45.54627777 ] } },
{ "type": "Feature", "properties": { "ARPT_ID": "MCG", "ARPT_NAME": "MC GRATH" }, "geometry": { "type": "Point", "coordinates": [ -155.60704805, 62.95278391 ] } },
{ "type": "Feature", "properties": { "ARPT_ID": "MEJ", "ARPT_NAME": "MEADE MUNI" }, "geometry": { "type": "Point", "coordinates": [ -100.35645566, 37.27867505 ] } },
{ "type": "Feature", "properties": { "ARPT_ID": "MEV", "ARPT_NAME": "MINDEN-TAHOE" }, "geometry": { "type": "Point", "coordinates": [ -119.75111111, 39.0005 ] } },
{ "type": "Feature", "properties": { "ARPT_ID": "MHL", "ARPT_NAME": "MARSHALL MEML MUNI" }, "geometry": { "type": "Point", "coordinates": [ -93.20299972, 39.09547833 ] } },
{ "type": "Feature", "properties": { "ARPT_ID": "MIC", "ARPT_NAME": "CRYSTAL" }, "geometry": { "type": "Point", "coordinates": [ -93.35396527, 45.06246944 ] } },
{ "type": "Feature", "properties": { "ARPT_ID": "MJQ", "ARPT_NAME": "JACKSON MUNI" }, "geometry": { "type": "Point", "coordinates": [ -94.9865725, 43.65078083 ] } },
{ "type": "Feature", "properties": { "ARPT_ID": "MN06", "ARPT_NAME": "PULKRABEK LANDING FLD" }, "geometry": { "type": "Point", "coordinates": [ -96.78367666, 48.04997472 ] } },
{ "type": "Feature", "properties": { "ARPT_ID": "MO00", "ARPT_NAME": "TURKEY MOUNTAIN" }, "geometry": { "type": "Point", "coordinates": [ -93.66381527, 36.59221805 ] } },
{ "type": "Feature", "properties": { "ARPT_ID": "MO67", "ARPT_NAME": "HAYES FLD" }, "geometry": { "type": "Point", "coordinates": [ -90.31399527, 36.71116666 ] } },
{ "type": "Feature", "properties": { "ARPT_ID": "MOP", "ARPT_NAME": "MOUNT PLEASANT MUNI" }, "geometry": { "type": "Point", "coordinates": [ -84.73730555, 43.62163888 ] } },
{ "type": "Feature", "properties": { "ARPT_ID": "MPR", "ARPT_NAME": "MC PHERSON" }, "geometry": { "type": "Point", "coordinates": [ -97.69129833, 38.35239361 ] } },
{ "type": "Feature", "properties": { "ARPT_ID": "MQB", "ARPT_NAME": "MACOMB MUNI" }, "geometry": { "type": "Point", "coordinates": [ -90.65238888, 40.52008333 ] } },
{ "type": "Feature", "properties": { "ARPT_ID": "MRC", "ARPT_NAME": "MAURY COUNTY RGNL" }, "geometry": { "type": "Point", "coordinates": [ -87.17914, 35.55433861 ] } },
{ "type": "Feature", "properties": { "ARPT_ID": "MS82", "ARPT_NAME": "SHADE TREE FLD" }, "geometry": { "type": "Point", "coordinates": [ -89.14726416, 30.51047222 ] } },
{ "type": "Feature", "properties": { "ARPT_ID": "MTO", "ARPT_NAME": "COLES COUNTY MEML" }, "geometry": { "type": "Point", "coordinates": [ -88.27997222, 39.47788888 ] } },
{ "type": "Feature", "properties": { "ARPT_ID": "MU38", "ARPT_NAME": "BOGARD-COWGILL" }, "geometry": { "type": "Point", "coordinates": [ -93.13078472, 40.17833055 ] } },
{ "type": "Feature", "properties": { "ARPT_ID": "MVE", "ARPT_NAME": "MONTEVIDEO-CHIPPEWA COUNTY" }, "geometry": { "type": "Point", "coordinates": [ -95.71038888, 44.96919444 ] } },
{ "type": "Feature", "properties": { "ARPT_ID": "MVI", "ARPT_NAME": "MONTE VISTA MUNI" }, "geometry": { "type": "Point", "coordinates": [ -106.04589777, 37.52872611 ] } },
{ "type": "Feature", "properties": { "ARPT_ID": "MWC", "ARPT_NAME": "LAWRENCE J TIMMERMAN" }, "geometry": { "type": "Point", "coordinates": [ -88.03441833, 43.11038 ] } },
{ "type": "Feature", "properties": { "ARPT_ID": "MXO", "ARPT_NAME": "MONTICELLO RGNL" }, "geometry": { "type": "Point", "coordinates": [ -91.16329833, 42.22036194 ] } },
{ "type": "Feature", "properties": { "ARPT_ID": "MY46", "ARPT_NAME": "HAY SHAKERS" }, "geometry": { "type": "Point", "coordinates": [ -94.21333333, 44.27916666 ] } },
{ "type": "Feature", "properties": { "ARPT_ID": "N35", "ARPT_NAME": "PUNXSUTAWNEY MUNI" }, "geometry": { "type": "Point", "coordinates": [ -78.92990444, 40.96683666 ] } },
{ "type": "Feature", "properties": { "ARPT_ID": "N51", "ARPT_NAME": "SOLBERG/HUNTERDON" }, "geometry": { "type": "Point", "coordinates": [ -74.73670666, 40.58278722 ] } },
{ "type": "Feature", "properties": { "ARPT_ID": "N63", "ARPT_NAME": "MEADOW BROOK FLD" }, "geometry": { "type": "Point", "coordinates": [ -80.14837916, 36.30152611 ] } },
{ "type": "Feature", "properties": { "ARPT_ID": "N72", "ARPT_NAME": "WARWICK MUNI" }, "geometry": { "type": "Point", "coordinates": [ -74.28709472, 41.28759361 ] } },
{ "type": "Feature", "properties": { "ARPT_ID": "N97", "ARPT_NAME": "HIATT" }, "geometry": { "type": "Point", "coordinates": [ -80.10754472, 35.83013666 ] } },
{ "type": "Feature", "properties": { "ARPT_ID": "NC05", "ARPT_NAME": "BRADFORD FLD" }, "geometry": { "type": "Point", "coordinates": [ -80.79423805, 35.40875 ] } },
{ "type": "Feature", "properties": { "ARPT_ID": "NC74", "ARPT_NAME": "CAUSEY" }, "geometry": { "type": "Point", "coordinates": [ -79.61764555, 35.91178555 ] } },
{ "type": "Feature", "properties": { "ARPT_ID": "NC81", "ARPT_NAME": "COX" }, "geometry": { "type": "Point", "coordinates": [ -78.85972944, 35.75181777 ] } },
{ "type": "Feature", "properties": { "ARPT_ID": "NE44", "ARPT_NAME": "KOINZAN" }, "geometry": { "type": "Point", "coordinates": [ -98.08367722, 41.98334111 ] } },
{ "type": "Feature", "properties": { "ARPT_ID": "NM42", "ARPT_NAME": "AERO TECH INC" }, "geometry": { "type": "Point", "coordinates": [ -103.14777777, 34.41583333 ] } },
{ "type": "Feature", "properties": { "ARPT_ID": "NRN", "ARPT_NAME": "NORTON MUNI" }, "geometry": { "type": "Point", "coordinates": [ -99.89469444, 39.85047222 ] } },
{ "type": "Feature", "properties": { "ARPT_ID": "NY89", "ARPT_NAME": "GOOSE CREEK" }, "geometry": { "type": "Point", "coordinates": [ -79.39143805, 42.08005666 ] } },
{ "type": "Feature", "properties": { "ARPT_ID": "O22", "ARPT_NAME": "COLUMBIA" }, "geometry": { "type": "Point", "coordinates": [ -120.41455555, 38.03041666 ] } },
{ "type": "Feature", "properties": { "ARPT_ID": "O26", "ARPT_NAME": "LONE PINE/DEATH VALLEY" }, "geometry": { "type": "Point", "coordinates": [ -118.04938888, 36.58869444 ] } },
{ "type": "Feature", "properties": { "ARPT_ID": "ODX", "ARPT_NAME": "EVELYN SHARP FLD" }, "geometry": { "type": "Point", "coordinates": [ -98.95186111, 41.62369444 ] } },
{ "type": "Feature", "properties": { "ARPT_ID": "OEB", "ARPT_NAME": "BRANCH COUNTY MEML" }, "geometry": { "type": "Point", "coordinates": [ -85.05230833, 41.93348888 ] } },
{ "type": "Feature", "properties": { "ARPT_ID": "OEL", "ARPT_NAME": "OAKLEY MUNI" }, "geometry": { "type": "Point", "coordinates": [ -100.81675, 39.11175 ] } },
{ "type": "Feature", "properties": { "ARPT_ID": "OEO", "ARPT_NAME": "L O SIMENSTAD MUNI" }, "geometry": { "type": "Point", "coordinates": [ -92.6901228, 45.30934305 ] } },
{ "type": "Feature", "properties": { "ARPT_ID": "OH77", "ARPT_NAME": "LUMBERTON" }, "geometry": { "type": "Point", "coordinates": [ -83.85492722, 39.55311638 ] } },
{ "type": "Feature", "properties": { "ARPT_ID": "OIN", "ARPT_NAME": "OBERLIN MUNI" }, "geometry": { "type": "Point", "coordinates": [ -100.53983416, 39.83438444 ] } },
{ "type": "Feature", "properties": { "ARPT_ID": "OK11", "ARPT_NAME": "KSA ORCHARDS" }, "geometry": { "type": "Point", "coordinates": [ -98.01052222, 34.31413611 ] } },
{ "type": "Feature", "properties": { "ARPT_ID": "OKH", "ARPT_NAME": "DELAURENTIS" }, "geometry": { "type": "Point", "coordinates": [ -122.67366666, 48.25152777 ] } },
{ "type": "Feature", "properties": { "ARPT_ID": "OLE", "ARPT_NAME": "CATTARAUGUS COUNTY-OLEAN" }, "geometry": { "type": "Point", "coordinates": [ -78.37136111, 42.24119444 ] } },
{ "type": "Feature", "properties": { "ARPT_ID": "OLU", "ARPT_NAME": "COLUMBUS MUNI" }, "geometry": { "type": "Point", "coordinates": [ -97.34094444, 41.44872222 ] } },
{ "type": "Feature", "properties": { "ARPT_ID": "OLZ", "ARPT_NAME": "OELWEIN MUNI" }, "geometry": { "type": "Point", "coordinates": [ -91.97439538, 42.6809245 ] } },
{ "type": "Feature", "properties": { "ARPT_ID": "OSH", "ARPT_NAME": "WITTMAN RGNL" }, "geometry": { "type": "Point", "coordinates": [ -88.5570425, 43.98437083 ] } },
{ "type": "Feature", "properties": { "ARPT_ID": "OUL", "ARPT_NAME": "NELSON LAGOON" }, "geometry": { "type": "Point", "coordinates": [ -161.160367220000012, 56.00753611 ] } },
{ "type": "Feature", "properties": { "ARPT_ID": "OWI", "ARPT_NAME": "OTTAWA MUNI" }, "geometry": { "type": "Point", "coordinates": [ -95.25318461, 38.53917425 ] } },
{ "type": "Feature", "properties": { "ARPT_ID": "P04", "ARPT_NAME": "BISBEE MUNI" }, "geometry": { "type": "Point", "coordinates": [ -109.88312861, 31.36399027 ] } },
{ "type": "Feature", "properties": { "ARPT_ID": "P14", "ARPT_NAME": "HOLBROOK MUNI" }, "geometry": { "type": "Point", "coordinates": [ -110.1385, 34.94072222 ] } },
{ "type": "Feature", "properties": { "ARPT_ID": "P15", "ARPT_NAME": "BROKENSTRAW" }, "geometry": { "type": "Point", "coordinates": [ -79.36067083, 41.83294027 ] } },
{ "type": "Feature", "properties": { "ARPT_ID": "P33", "ARPT_NAME": "COCHISE COUNTY" }, "geometry": { "type": "Point", "coordinates": [ -109.89463888, 32.24541666 ] } },
{ "type": "Feature", "properties": { "ARPT_ID": "P45", "ARPT_NAME": "MOUNT PLEASANT/SCOTTDALE" }, "geometry": { "type": "Point", "coordinates": [ -79.54307408, 40.10767266 ] } },
{ "type": "Feature", "properties": { "ARPT_ID": "PA74", "ARPT_NAME": "GUSLER" }, "geometry": { "type": "Point", "coordinates": [ -76.83997194, 40.46536361 ] } },
{ "type": "Feature", "properties": { "ARPT_ID": "PAQ", "ARPT_NAME": "WARREN \"BUD\" WOODS PALMER MUNI" }, "geometry": { "type": "Point", "coordinates": [ -149.08872222, 61.59491666 ] } },
{ "type": "Feature", "properties": { "ARPT_ID": "PHD", "ARPT_NAME": "HARRY CLEVER FLD" }, "geometry": { "type": "Point", "coordinates": [ -81.41994444, 40.47016666 ] } },
{ "type": "Feature", "properties": { "ARPT_ID": "PHG", "ARPT_NAME": "PHILLIPSBURG MUNI" }, "geometry": { "type": "Point", "coordinates": [ -99.31711111, 39.73580555 ] } },
{ "type": "Feature", "properties": { "ARPT_ID": "PKV", "ARPT_NAME": "CALHOUN COUNTY" }, "geometry": { "type": "Point", "coordinates": [ -96.68272222, 28.65330555 ] } },
{ "type": "Feature", "properties": { "ARPT_ID": "PMV", "ARPT_NAME": "PLATTSMOUTH MUNI/DOUGLAS V DUEY FLD" }, "geometry": { "type": "Point", "coordinates": [ -95.91735416, 40.94836944 ] } },
{ "type": "Feature", "properties": { "ARPT_ID": "PN66", "ARPT_NAME": "DUNLEA AIRPARK" }, "geometry": { "type": "Point", "coordinates": [ -79.36364888, 40.42562333 ] } },
{ "type": "Feature", "properties": { "ARPT_ID": "PO1", "ARPT_NAME": "POPLAR MUNI" }, "geometry": { "type": "Point", "coordinates": [ -105.16213888, 48.13441666 ] } },
{ "type": "Feature", "properties": { "ARPT_ID": "POU", "ARPT_NAME": "HUDSON VALLEY RGNL" }, "geometry": { "type": "Point", "coordinates": [ -73.88418861, 41.626585 ] } },
{ "type": "Feature", "properties": { "ARPT_ID": "POY", "ARPT_NAME": "POWELL MUNI" }, "geometry": { "type": "Point", "coordinates": [ -108.79341666, 44.86716666 ] } },
{ "type": "Feature", "properties": { "ARPT_ID": "PRO", "ARPT_NAME": "PERRY MUNI" }, "geometry": { "type": "Point", "coordinates": [ -94.15982327, 41.82800583 ] } },
{ "type": "Feature", "properties": { "ARPT_ID": "PVB", "ARPT_NAME": "PLATTEVILLE MUNI" }, "geometry": { "type": "Point", "coordinates": [ -90.44439111, 42.68935722 ] } },
{ "type": "Feature", "properties": { "ARPT_ID": "PWD", "ARPT_NAME": "SHER-WOOD" }, "geometry": { "type": "Point", "coordinates": [ -104.52373833, 48.79051555 ] } },
{ "type": "Feature", "properties": { "ARPT_ID": "PYX", "ARPT_NAME": "PERRYTON OCHILTREE COUNTY" }, "geometry": { "type": "Point", "coordinates": [ -100.75157638, 36.41291777 ] } },
{ "type": "Feature", "properties": { "ARPT_ID": "RAP", "ARPT_NAME": "RAPID CITY RGNL" }, "geometry": { "type": "Point", "coordinates": [ -103.05736111, 44.04533333 ] } },
{ "type": "Feature", "properties": { "ARPT_ID": "RDK", "ARPT_NAME": "RED OAK MUNI" }, "geometry": { "type": "Point", "coordinates": [ -95.25886111, 41.01083333 ] } },
{ "type": "Feature", "properties": { "ARPT_ID": "RK1", "ARPT_NAME": "KAVIK STRIP" }, "geometry": { "type": "Point", "coordinates": [ -146.90004583000001, 69.67677638 ] } },
{ "type": "Feature", "properties": { "ARPT_ID": "RNH", "ARPT_NAME": "NEW RICHMOND RGNL" }, "geometry": { "type": "Point", "coordinates": [ -92.53916666, 45.14777777 ] } },
{ "type": "Feature", "properties": { "ARPT_ID": "RNP", "ARPT_NAME": "OWOSSO COMMUNITY" }, "geometry": { "type": "Point", "coordinates": [ -84.1385, 42.99297222 ] } },
{ "type": "Feature", "properties": { "ARPT_ID": "RPB", "ARPT_NAME": "BELLEVILLE MUNI" }, "geometry": { "type": "Point", "coordinates": [ -97.65958638, 39.81775972 ] } },
{ "type": "Feature", "properties": { "ARPT_ID": "RPX", "ARPT_NAME": "ROUNDUP" }, "geometry": { "type": "Point", "coordinates": [ -108.54341666, 46.475 ] } },
{ "type": "Feature", "properties": { "ARPT_ID": "RRT", "ARPT_NAME": "WARROAD INTL MEML" }, "geometry": { "type": "Point", "coordinates": [ -95.34847222, 48.94147222 ] } },
{ "type": "Feature", "properties": { "ARPT_ID": "RSL", "ARPT_NAME": "RUSSELL MUNI" }, "geometry": { "type": "Point", "coordinates": [ -98.81160372, 38.87136358 ] } },
{ "type": "Feature", "properties": { "ARPT_ID": "RVF", "ARPT_NAME": "RUBY VALLEY FLD" }, "geometry": { "type": "Point", "coordinates": [ -112.30227777, 45.53541666 ] } },
{ "type": "Feature", "properties": { "ARPT_ID": "RWF", "ARPT_NAME": "REDWOOD FALLS MUNI" }, "geometry": { "type": "Point", "coordinates": [ -95.082, 44.54688888 ] } },
{ "type": "Feature", "properties": { "ARPT_ID": "RZL", "ARPT_NAME": "JASPER COUNTY" }, "geometry": { "type": "Point", "coordinates": [ -87.18264808, 40.94782366 ] } },
{ "type": "Feature", "properties": { "ARPT_ID": "S01", "ARPT_NAME": "CONRAD" }, "geometry": { "type": "Point", "coordinates": [ -111.97644444, 48.16827777 ] } },
{ "type": "Feature", "properties": { "ARPT_ID": "S33", "ARPT_NAME": "MADRAS MUNI" }, "geometry": { "type": "Point", "coordinates": [ -121.15514916, 44.67016333 ] } },
{ "type": "Feature", "properties": { "ARPT_ID": "S39", "ARPT_NAME": "PRINEVILLE" }, "geometry": { "type": "Point", "coordinates": [ -120.9054975, 44.28785444 ] } },
{ "type": "Feature", "properties": { "ARPT_ID": "S43", "ARPT_NAME": "HARVEY FLD" }, "geometry": { "type": "Point", "coordinates": [ -122.10274361, 47.90486802 ] } },
{ "type": "Feature", "properties": { "ARPT_ID": "S73", "ARPT_NAME": "KAMIAH MUNI" }, "geometry": { "type": "Point", "coordinates": [ -116.01380555, 46.21977777 ] } },
{ "type": "Feature", "properties": { "ARPT_ID": "SAR", "ARPT_NAME": "SPARTA COMMUNITY-HUNTER FLD" }, "geometry": { "type": "Point", "coordinates": [ -89.69850388, 38.14886361 ] } },
{ "type": "Feature", "properties": { "ARPT_ID": "SBU", "ARPT_NAME": "BLUE EARTH MUNI" }, "geometry": { "type": "Point", "coordinates": [ -94.09286111, 43.59536111 ] } },
{ "type": "Feature", "properties": { "ARPT_ID": "SC41", "ARPT_NAME": "PALMETTO AIR PLANTATION" }, "geometry": { "type": "Point", "coordinates": [ -80.24388888, 33.66611111 ] } },
{ "type": "Feature", "properties": { "ARPT_ID": "SC94", "ARPT_NAME": "WEAVER FLD" }, "geometry": { "type": "Point", "coordinates": [ -79.50638888, 33.88944444 ] } },
{ "type": "Feature", "properties": { "ARPT_ID": "SD46", "ARPT_NAME": "JENSEN" }, "geometry": { "type": "Point", "coordinates": [ -96.83977777, 43.83029722 ] } },
{ "type": "Feature", "properties": { "ARPT_ID": "SD74", "ARPT_NAME": "VANDER WAL" }, "geometry": { "type": "Point", "coordinates": [ -100.37623527, 45.99554972 ] } },
{ "type": "Feature", "properties": { "ARPT_ID": "SD76", "ARPT_NAME": "TENNANT RANCH" }, "geometry": { "type": "Point", "coordinates": [ -103.94548638, 45.82944388 ] } },
{ "type": "Feature", "properties": { "ARPT_ID": "SER", "ARPT_NAME": "FREEMAN MUNI" }, "geometry": { "type": "Point", "coordinates": [ -85.90972058, 38.92425644 ] } },
{ "type": "Feature", "properties": { "ARPT_ID": "SJX", "ARPT_NAME": "BEAVER ISLAND" }, "geometry": { "type": "Point", "coordinates": [ -85.56661111, 45.69222222 ] } },
{ "type": "Feature", "properties": { "ARPT_ID": "SLQ", "ARPT_NAME": "SLEETMUTE" }, "geometry": { "type": "Point", "coordinates": [ -157.165849720000011, 61.70050944 ] } },
{ "type": "Feature", "properties": { "ARPT_ID": "SMQ", "ARPT_NAME": "SOMERSET" }, "geometry": { "type": "Point", "coordinates": [ -74.67003161, 40.62598063 ] } },
{ "type": "Feature", "properties": { "ARPT_ID": "SNY", "ARPT_NAME": "SIDNEY MUNI/LLOYD W CARR FLD" }, "geometry": { "type": "Point", "coordinates": [ -102.98499305, 41.09976083 ] } },
{ "type": "Feature", "properties": { "ARPT_ID": "SPF", "ARPT_NAME": "BLACK HILLS-CLYDE ICE FLD" }, "geometry": { "type": "Point", "coordinates": [ -103.786, 44.48105555 ] } },
{ "type": "Feature", "properties": { "ARPT_ID": "SPZ", "ARPT_NAME": "SILVER SPRINGS" }, "geometry": { "type": "Point", "coordinates": [ -119.25119444, 39.40305555 ] } },
{ "type": "Feature", "properties": { "ARPT_ID": "STK", "ARPT_NAME": "STERLING MUNI" }, "geometry": { "type": "Point", "coordinates": [ -103.26426111, 40.61429805 ] } },
{ "type": "Feature", "properties": { "ARPT_ID": "SVC", "ARPT_NAME": "GRANT COUNTY" }, "geometry": { "type": "Point", "coordinates": [ -108.156385, 32.63654694 ] } },
{ "type": "Feature", "properties": { "ARPT_ID": "SVE", "ARPT_NAME": "SUSANVILLE MUNI" }, "geometry": { "type": "Point", "coordinates": [ -120.57269444, 40.37569444 ] } },
{ "type": "Feature", "properties": { "ARPT_ID": "SXQ", "ARPT_NAME": "SOLDOTNA" }, "geometry": { "type": "Point", "coordinates": [ -151.039638880000012, 60.47513888 ] } },
{ "type": "Feature", "properties": { "ARPT_ID": "SYF", "ARPT_NAME": "CHEYENNE COUNTY MUNI" }, "geometry": { "type": "Point", "coordinates": [ -101.79466583, 39.75916666 ] } },
{ "type": "Feature", "properties": { "ARPT_ID": "SYN", "ARPT_NAME": "STANTON AIRFIELD" }, "geometry": { "type": "Point", "coordinates": [ -93.01632005, 44.47552161 ] } },
{ "type": "Feature", "properties": { "ARPT_ID": "T00", "ARPT_NAME": "CHAMBERS COUNTY" }, "geometry": { "type": "Point", "coordinates": [ -94.66348708, 29.76981477 ] } },
{ "type": "Feature", "properties": { "ARPT_ID": "T13", "ARPT_NAME": "DALLAS SOUTH PORT" }, "geometry": { "type": "Point", "coordinates": [ -96.68541666, 32.47738333 ] } },
{ "type": "Feature", "properties": { "ARPT_ID": "T69", "ARPT_NAME": "SINTON" }, "geometry": { "type": "Point", "coordinates": [ -97.54250125, 28.03856686 ] } },
{ "type": "Feature", "properties": { "ARPT_ID": "T92", "ARPT_NAME": "MASON COUNTY" }, "geometry": { "type": "Point", "coordinates": [ -99.18400597, 30.73219302 ] } },
{ "type": "Feature", "properties": { "ARPT_ID": "TA18", "ARPT_NAME": "SUNSET" }, "geometry": { "type": "Point", "coordinates": [ -96.47943138, 32.70707472 ] } },
{ "type": "Feature", "properties": { "ARPT_ID": "TA78", "ARPT_NAME": "PUTTY RANCH" }, "geometry": { "type": "Point", "coordinates": [ -98.06142388, 31.97236972 ] } },
{ "type": "Feature", "properties": { "ARPT_ID": "TAN", "ARPT_NAME": "TAUNTON MUNI - KING FLD" }, "geometry": { "type": "Point", "coordinates": [ -71.0163165, 41.87446738 ] } },
{ "type": "Feature", "properties": { "ARPT_ID": "TCS", "ARPT_NAME": "TRUTH OR CONSEQUENCES MUNI" }, "geometry": { "type": "Point", "coordinates": [ -107.26988888, 33.23536111 ] } },
{ "type": "Feature", "properties": { "ARPT_ID": "TE75", "ARPT_NAME": "LEXINGTON AIRFIELD" }, "geometry": { "type": "Point", "coordinates": [ -96.96666666, 30.4125 ] } },
{ "type": "Feature", "properties": { "ARPT_ID": "TE88", "ARPT_NAME": "BB AIRPARK" }, "geometry": { "type": "Point", "coordinates": [ -95.45940277, 29.35694166 ] } },
{ "type": "Feature", "properties": { "ARPT_ID": "TKC", "ARPT_NAME": "TRACY MUNI" }, "geometry": { "type": "Point", "coordinates": [ -95.60722916, 44.24923944 ] } },
{ "type": "Feature", "properties": { "ARPT_ID": "TOB", "ARPT_NAME": "DODGE CENTER" }, "geometry": { "type": "Point", "coordinates": [ -92.83162005, 44.01799563 ] } },
{ "type": "Feature", "properties": { "ARPT_ID": "TPO", "ARPT_NAME": "PORT ALSWORTH" }, "geometry": { "type": "Point", "coordinates": [ -154.318872770000013, 60.20433333 ] } },
{ "type": "Feature", "properties": { "ARPT_ID": "TQK", "ARPT_NAME": "SCOTT CITY MUNI" }, "geometry": { "type": "Point", "coordinates": [ -100.88443888, 38.47502305 ] } },
{ "type": "Feature", "properties": { "ARPT_ID": "TS63", "ARPT_NAME": "SQUARE AIR" }, "geometry": { "type": "Point", "coordinates": [ -96.56415555, 33.24594833 ] } },
{ "type": "Feature", "properties": { "ARPT_ID": "TTW", "ARPT_NAME": "CANTWELL" }, "geometry": { "type": "Point", "coordinates": [ -148.95561638, 63.39120472 ] } },
{ "type": "Feature", "properties": { "ARPT_ID": "U10", "ARPT_NAME": "PRESTON" }, "geometry": { "type": "Point", "coordinates": [ -111.91257083, 42.10693611 ] } },
{ "type": "Feature", "properties": { "ARPT_ID": "U12", "ARPT_NAME": "STANFORD FLD" }, "geometry": { "type": "Point", "coordinates": [ -111.68469444, 43.95016666 ] } },
{ "type": "Feature", "properties": { "ARPT_ID": "U52", "ARPT_NAME": "BEAVER MUNI" }, "geometry": { "type": "Point", "coordinates": [ -112.67541666, 38.23058333 ] } },
{ "type": "Feature", "properties": { "ARPT_ID": "U68", "ARPT_NAME": "NORTH BIG HORN COUNTY" }, "geometry": { "type": "Point", "coordinates": [ -108.4455, 44.91166666 ] } },
{ "type": "Feature", "properties": { "ARPT_ID": "U69", "ARPT_NAME": "DUCHESNE MUNI" }, "geometry": { "type": "Point", "coordinates": [ -110.38262388, 40.19363527 ] } },
{ "type": "Feature", "properties": { "ARPT_ID": "UBE", "ARPT_NAME": "CUMBERLAND MUNI" }, "geometry": { "type": "Point", "coordinates": [ -91.98080211, 45.50609966 ] } },
{ "type": "Feature", "properties": { "ARPT_ID": "UDD", "ARPT_NAME": "BERMUDA DUNES" }, "geometry": { "type": "Point", "coordinates": [ -116.27481333, 33.7484375 ] } },
{ "type": "Feature", "properties": { "ARPT_ID": "ULM", "ARPT_NAME": "NEW ULM MUNI" }, "geometry": { "type": "Point", "coordinates": [ -94.50164333, 44.31838666 ] } },
{ "type": "Feature", "properties": { "ARPT_ID": "USE", "ARPT_NAME": "FULTON COUNTY" }, "geometry": { "type": "Point", "coordinates": [ -84.12718855, 41.60977858 ] } },
{ "type": "Feature", "properties": { "ARPT_ID": "VBT", "ARPT_NAME": "BENTONVILLE MUNI/LOUISE M THADEN FLD" }, "geometry": { "type": "Point", "coordinates": [ -94.21950333, 36.34533527 ] } },
{ "type": "Feature", "properties": { "ARPT_ID": "VVV", "ARPT_NAME": "ORTONVILLE MUNI/MARTINSON FLD" }, "geometry": { "type": "Point", "coordinates": [ -96.42460888, 45.30412944 ] } },
{ "type": "Feature", "properties": { "ARPT_ID": "W28", "ARPT_NAME": "SEQUIM VALLEY" }, "geometry": { "type": "Point", "coordinates": [ -123.18792083, 48.09792222 ] } },
{ "type": "Feature", "properties": { "ARPT_ID": "W41", "ARPT_NAME": "CRISFIELD-SOMERSET COUNTY" }, "geometry": { "type": "Point", "coordinates": [ -75.82686111, 38.01816666 ] } },
{ "type": "Feature", "properties": { "ARPT_ID": "W91", "ARPT_NAME": "SMITH MOUNTAIN LAKE" }, "geometry": { "type": "Point", "coordinates": [ -79.59247222, 37.10772222 ] } },
{ "type": "Feature", "properties": { "ARPT_ID": "WBW", "ARPT_NAME": "WILKES-BARRE WYOMING VALLEY" }, "geometry": { "type": "Point", "coordinates": [ -75.85224333, 41.2973075 ] } },
{ "type": "Feature", "properties": { "ARPT_ID": "WRL", "ARPT_NAME": "WORLAND MUNI" }, "geometry": { "type": "Point", "coordinates": [ -107.95052777, 43.96288888 ] } },
{ "type": "Feature", "properties": { "ARPT_ID": "WS55", "ARPT_NAME": "BARTEN" }, "geometry": { "type": "Point", "coordinates": [ -88.74538194, 42.51751611 ] } },
{ "type": "Feature", "properties": { "ARPT_ID": "WY60", "ARPT_NAME": "HEINER" }, "geometry": { "type": "Point", "coordinates": [ -110.89798027, 42.86103694 ] } },
{ "type": "Feature", "properties": { "ARPT_ID": "WY66", "ARPT_NAME": "CHAMBERLAIN BROTHERS RANCH" }, "geometry": { "type": "Point", "coordinates": [ -105.61961111, 42.75217777 ] } },
{ "type": "Feature", "properties": { "ARPT_ID": "X51", "ARPT_NAME": "MIAMI HOMESTEAD GENERAL AVIATION" }, "geometry": { "type": "Point", "coordinates": [ -80.55424666, 25.49922694 ] } },
{ "type": "Feature", "properties": { "ARPT_ID": "X58", "ARPT_NAME": "INDIANTOWN" }, "geometry": { "type": "Point", "coordinates": [ -80.441, 27.0375 ] } },
{ "type": "Feature", "properties": { "ARPT_ID": "X60", "ARPT_NAME": "WILLISTON MUNI" }, "geometry": { "type": "Point", "coordinates": [ -82.47056361, 29.354605 ] } },
{ "type": "Feature", "properties": { "ARPT_ID": "XA34", "ARPT_NAME": "ALLISON FARM" }, "geometry": { "type": "Point", "coordinates": [ -97.428, 33.24166666 ] } },
{ "type": "Feature", "properties": { "ARPT_ID": "XA52", "ARPT_NAME": "GRAND ROCK" }, "geometry": { "type": "Point", "coordinates": [ -95.2935, 30.92352777 ] } },
{ "type": "Feature", "properties": { "ARPT_ID": "XS24", "ARPT_NAME": "CHERRY SPRAYING SERVICE" }, "geometry": { "type": "Point", "coordinates": [ -97.0991525, 29.82967166 ] } },
{ "type": "Feature", "properties": { "ARPT_ID": "Y23", "ARPT_NAME": "CHETEK MUNI/SOUTHWORTH" }, "geometry": { "type": "Point", "coordinates": [ -91.63682302, 45.30648755 ] } },
{ "type": "Feature", "properties": { "ARPT_ID": "Y37", "ARPT_NAME": "PARK RIVER - W C SKJERVEN FLD" }, "geometry": { "type": "Point", "coordinates": [ -97.78077027, 48.39408305 ] } },
{ "type": "Feature", "properties": { "ARPT_ID": "Y50", "ARPT_NAME": "WAUTOMA MUNI" }, "geometry": { "type": "Point", "coordinates": [ -89.30569052, 44.04313508 ] } },
{ "type": "Feature", "properties": { "ARPT_ID": "Y51", "ARPT_NAME": "VIROQUA MUNI" }, "geometry": { "type": "Point", "coordinates": [ -90.89772222, 43.57963888 ] } },
{ "type": "Feature", "properties": { "ARPT_ID": "Y70", "ARPT_NAME": "IONIA COUNTY" }, "geometry": { "type": "Point", "coordinates": [ -85.06057302, 42.93792786 ] } },
{ "type": "Feature", "properties": { "ARPT_ID": "Z98", "ARPT_NAME": "OTTAWA EXEC" }, "geometry": { "type": "Point", "coordinates": [ -85.92791666, 42.81717638 ] } },
{ "type": "Feature", "properties": { "ARPT_ID": "ZER", "ARPT_NAME": "SCHUYLKILL COUNTY/JOE ZERBEY" }, "geometry": { "type": "Point", "coordinates": [ -76.37375027, 40.70675083 ] } }
]
}
