id,ident,type,name,latitude_deg,longitude_deg,elevation_ft,continent,iso_country,iso_region,municipality,scheduled_service,gps_code,iata_code,local_code,home_link,wikipedia_link,keywords,geometry,osm_editor_link
324424,00CL,small_airport,Williams Ag Airport,39.427188,-121.763427,87.0,,US,US-CA,Biggs,no,00CL,,00CL,,,,POINT (-121.763427 39.427187999999994),https://www.openstreetmap.org/edit?editor=id#map=18/39.427188/-121.763427
6549,00MO,small_airport,Cooper Flying Service Airport,37.202800750732,-94.412399291992,970.0,,US,US-MO,Alba,no,00MO,,00MO,,,5K8,POINT (-94.41239929199199 37.20280075073201),https://www.openstreetmap.org/edit?editor=id#map=18/37.202801/-94.412399
321919,00NK,seaplane_base,Cliche Cove Seaplane Base,44.8118612,-73.3698057,96.0,,US,US-NY,Beekmantown,no,00NK,,00NK,,,,POINT (-73.3698057 44.8118612),https://www.openstreetmap.org/edit?editor=id#map=18/44.811861/-73.369806
328503,00OK,small_airport,Gull Bay Landing Airport,36.198598,-96.217693,960.0,,US,US-OK,Sandsprings,no,00OK,,00OK,,,,POINT (-96.21769299999998 36.198598000000004),https://www.openstreetmap.org/edit?editor=id#map=18/36.198598/-96.217693
516563,00TT,small_airport,Nowhere Airport,34.516606,-99.93694,1752.0,,US,US-TX,Goodlett,no,00TT,,00TT,,,,POINT (-99.93694 34.516606),https://www.openstreetmap.org/edit?editor=id#map=18/34.516606/-99.936940
6573,00WN,small_airport,Hawks Run Airport,46.25,-117.2490005493164,2900.0,,US,US-WA,Asotin,no,00WN,,00WN,,,,POINT (-117.24900054931639 46.24999999999999),https://www.openstreetmap.org/edit?editor=id#map=18/46.250000/-117.249001
525140,00XA,small_airport,Weeski Ranch Airport,30.224,-96.01417,271.0,,US,US-TX,,no,00XA,,00XA,,,,POINT (-96.01416999999998 30.223999999999993),https://www.openstreetmap.org/edit?editor=id#map=18/30.224000/-96.014170
356168,01AN,small_airport,McHone Heights Airport,61.649095,-149.339025,610.0,,US,US-AK,Wasilla,no,01AN,,01AN,,,,POINT (-149.339025 61.649095),https://www.openstreetmap.org/edit?editor=id#map=18/61.649095/-149.339025
6593,01II,small_airport,Myers Field,39.8849983215332,-86.50669860839844,950.0,,US,US-IN,Lizton,no,01II,,01II,,,,POINT (-86.50669860839844 39.8849983215332),https://www.openstreetmap.org/edit?editor=id#map=18/39.884998/-86.506699
6603,01LS,small_airport,Country Breeze Airport,30.722478,-91.077372,125.0,,US,US-LA,Slaughter,no,01LS,,01LS,,,,POINT (-91.07737199999998 30.72247799999999),https://www.openstreetmap.org/edit?editor=id#map=18/30.722478/-91.077372
6615,01NV,small_airport,Lantana Ranch Airport,38.76390075683594,-119.0270004272461,4600.0,,US,US-NV,Yerington,no,01NV,,01NV,,,,POINT (-119.02700042724607 38.76390075683594),https://www.openstreetmap.org/edit?editor=id#map=18/38.763901/-119.027000
345166,01OL,small_airport,Spring Creek Ranch East Airport,34.391667,-96.690833,1060.0,,US,US-OK,Tishomingo,no,01OL,,01OL,,,,POINT (-96.69083299999998 34.391667),https://www.openstreetmap.org/edit?editor=id#map=18/34.391667/-96.690833
6621,01PN,small_airport,Bierly(Personal Use) Airport,40.93059921264648,-77.73889923095703,960.0,,US,US-PA,Bellefonte,no,01PN,,01PN,,,,POINT (-77.73889923095703 40.93059921264647),https://www.openstreetmap.org/edit?editor=id#map=18/40.930599/-77.738899
6625,01TE,small_airport,Smith Field,32.737598,-96.428001,505.0,,US,US-TX,Forney,no,01TE,,01TE,,,02F,POINT (-96.428001 32.737598),https://www.openstreetmap.org/edit?editor=id#map=18/32.737598/-96.428001
6631,01VA,small_airport,Pickles Airport,39.125,-77.9250030518,500.0,,US,US-VA,Berryville,no,01VA,,01VA,,,,POINT (-77.9250030518 39.125),https://www.openstreetmap.org/edit?editor=id#map=18/39.125000/-77.925003
529870,02AN,small_airport,Emerald Ridge Airport,59.704223,-151.295869,222.0,,US,US-AK,Homer,no,02AN,,02AN,,,,POINT (-151.29586899999998 59.70422299999999),https://www.openstreetmap.org/edit?editor=id#map=18/59.704223/-151.295869
322099,02MD,small_airport,Garner Field,38.672544,-76.709739,141.0,,US,US-MD,Brandywine,no,02MD,,02MD,,,,POINT (-76.709739 38.672543999999995),https://www.openstreetmap.org/edit?editor=id#map=18/38.672544/-76.709739
6664,02MO,small_airport,Troy Airpark,39.04999923706055,-91.03350067138672,650.0,,US,US-MO,Troy,no,02MO,,02MO,,,,POINT (-91.0335006713867 39.04999923706054),https://www.openstreetmap.org/edit?editor=id#map=18/39.049999/-91.033501
6668,02NE,small_airport,Benes Service Airport,41.074501037597656,-96.90450286865234,1550.0,,US,US-NE,Valparaiso,no,02NE,,02NE,,,,POINT (-96.90450286865234 41.07450103759765),https://www.openstreetmap.org/edit?editor=id#map=18/41.074501/-96.904503
526225,02NM,small_airport,FFR Animas Landing Strip,32.09071,-108.870735,4240.0,,US,US-NM,Animas,no,02NM,,02NM,,,,POINT (-108.87073499999998 32.090709999999994),https://www.openstreetmap.org/edit?editor=id#map=18/32.090710/-108.870735
6673,02OH,small_airport,Zimmerman Airport,41.37639999389648,-83.08329772949219,614.0,,US,US-OH,Fremont,no,02OH,,02OH,,,,POINT (-83.08329772949219 41.376399993896484),https://www.openstreetmap.org/edit?editor=id#map=18/41.376400/-83.083298
6674,02OI,small_airport,Murtha Airport,41.801998138427734,-80.56539916992188,950.0,,US,US-OH,Conneaut,no,02OI,,02OI,,,,POINT (-80.56539916992186 41.80199813842773),https://www.openstreetmap.org/edit?editor=id#map=18/41.801998/-80.565399
6676,02OR,small_airport,Rowena Dell Airport,45.68149948120117,-121.31600189208984,705.0,,US,US-OR,The Dalles,no,02OR,,02OR,,,,POINT (-121.31600189208984 45.68149948120117),https://www.openstreetmap.org/edit?editor=id#map=18/45.681499/-121.316002
330393,02XA,small_airport,JLS Farms Airport,33.591319,-95.882864,675.0,,US,US-TX,Honey Grove,no,02XA,,02XA,,,,POINT (-95.882864 33.591319),https://www.openstreetmap.org/edit?editor=id#map=18/33.591319/-95.882864
6696,03AK,seaplane_base,Joe Clouds Seaplane Base,60.72722244262695,-151.13278198242188,150.0,,US,US-AK,Kenai,no,03AK,,03AK,,,,POINT (-151.13278198242185 60.72722244262694),https://www.openstreetmap.org/edit?editor=id#map=18/60.727222/-151.132782
6713,03KY,small_airport,Flying H Farms Airport,37.796085,-87.53859,385.0,,US,US-KY,Henderson,no,03KY,,03KY,,,,POINT (-87.53859 37.796085),https://www.openstreetmap.org/edit?editor=id#map=18/37.796085/-87.538590
6728,03NE,small_airport,Hyde Ranch Airport,41.5463981628418,-99.3311996459961,2430.0,,US,US-NE,Comstock,no,03NE,,03NE,,,,POINT (-99.3311996459961 41.5463981628418),https://www.openstreetmap.org/edit?editor=id#map=18/41.546398/-99.331200
6735,03OK,small_airport,Sahoma Lake Airport,36.041259,-96.161517,890.0,,US,US-OK,Sapulpa,no,03OK,,03OK,,,,POINT (-96.16151699999999 36.041259),https://www.openstreetmap.org/edit?editor=id#map=18/36.041259/-96.161517
341551,03TT,small_airport,Brazos Polo Airport,29.632117,-95.932481,117.0,,US,US-TX,Orchard,no,03TT,,03TT,,,,POINT (-95.93248099999998 29.632116999999994),https://www.openstreetmap.org/edit?editor=id#map=18/29.632117/-95.932481
509055,04AN,small_airport,North 40 Airport,61.737511,-148.700724,943.0,,US,US-AK,Sutton,no,04AN,,04AN,,,,POINT (-148.700724 61.737511),https://www.openstreetmap.org/edit?editor=id#map=18/61.737511/-148.700724
6784,04NV,small_airport,Kingston Ranch Airport,35.7555007935,-115.665000916,2620.0,,US,US-NV,Sandy Valley,no,04NV,,04NV,,,,POINT (-115.66500091599998 35.75550079349999),https://www.openstreetmap.org/edit?editor=id#map=18/35.755501/-115.665001
6788,04OR,small_airport,Collins Landing Strip,44.7499008179,-120.200996399,1500.0,,US,US-OR,Mitchell,no,04OR,,04OR,,,,POINT (-120.200996399 44.74990081789999),https://www.openstreetmap.org/edit?editor=id#map=18/44.749901/-120.200996
334249,04XA,small_airport,Pecan Field,33.283933,-98.402861,1130.0,,US,US-TX,Jermyn,no,04XA,,04XA,,,,POINT (-98.402861 33.283933),https://www.openstreetmap.org/edit?editor=id#map=18/33.283933/-98.402861
514272,05AN,small_airport,Wetons Aerodrome,64.960472,-147.601092,795.0,,US,US-AK,Fox,no,05AN,,05AN,,,,POINT (-147.60109199999997 64.960472),https://www.openstreetmap.org/edit?editor=id#map=18/64.960472/-147.601092
6824,05IS,small_airport,Hardy Airport,39.72589874267578,-89.26399993896484,605.0,,US,US-IL,Mount Auburn,no,05IS,,05IS,,,,POINT (-89.26399993896483 39.72589874267577),https://www.openstreetmap.org/edit?editor=id#map=18/39.725899/-89.264000
346026,05KT,small_airport,High Point Farm Airport,38.187091,-84.93011,880.0,,US,US-KY,Frankfort,no,05KT,,05KT,,,,POINT (-84.93010999999998 38.187090999999995),https://www.openstreetmap.org/edit?editor=id#map=18/38.187091/-84.930110
537370,05NR,small_airport,Gary Fox Airport,36.168415,-79.276908,675.0,,US,US-NC,Mebane,no,05NR,,05NR,,,,POINT (-79.276908 36.168414999999996),https://www.openstreetmap.org/edit?editor=id#map=18/36.168415/-79.276908
324404,05NV,small_airport,Baker Ranches Airport,39.0311,-114.088219,5180.0,,US,US-NV,Baker,no,05NV,,05NV,,,,POINT (-114.08821899999998 39.0311),https://www.openstreetmap.org/edit?editor=id#map=18/39.031100/-114.088219
429744,05OH,small_airport,Eaglecrest Field,40.184513,-81.920564,968.0,,US,US-OH,Conesville,no,05OH,,05OH,,,,POINT (-81.92056399999998 40.184513),https://www.openstreetmap.org/edit?editor=id#map=18/40.184513/-81.920564
6841,05OI,small_airport,Dorlon Airpark,41.28839874267578,-81.96260070800781,830.0,,US,US-OH,Columbia Station,no,05OI,,05OI,,,,POINT (-81.96260070800781 41.28839874267578),https://www.openstreetmap.org/edit?editor=id#map=18/41.288399/-81.962601
6843,05OR,small_airport,Peacock Ranch Airport,45.44428,-117.34722,3500.0,,US,US-OR,Enterprise,no,05OR,,05OR,,,,POINT (-117.34722000000001 45.44427999999999),https://www.openstreetmap.org/edit?editor=id#map=18/45.444280/-117.347220
324414,06NV,small_airport,Silver Creek Airport,39.098333,-114.150277,5556.0,,US,US-NV,Baker,no,06NV,,06NV,,,,POINT (-114.15027699999999 39.098333),https://www.openstreetmap.org/edit?editor=id#map=18/39.098333/-114.150277
6895,06NY,small_airport,Murphy Field,42.836797,-76.437614,1100.0,,US,US-NY,Auburn,no,06NY,,06NY,,,,POINT (-76.437614 42.836797000000004),https://www.openstreetmap.org/edit?editor=id#map=18/42.836797/-76.437614
6897,06OH,small_airport,Hal Joy Airfield,41.50979995727539,-80.59120178222656,1160.0,,US,US-OH,Williamsfield,no,06OH,,06OH,,,,POINT (-80.59120178222656 41.50979995727538),https://www.openstreetmap.org/edit?editor=id#map=18/41.509800/-80.591202
6900,06OR,small_airport,Hayden Mountain Airport,45.4650993347168,-123.08000183105467,850.0,,US,US-OR,Forest Grove,no,06OR,,06OR,,,,POINT (-123.08000183105464 45.4650993347168),https://www.openstreetmap.org/edit?editor=id#map=18/45.465099/-123.080002
340868,06TT,small_airport,6 Mile Airpark,30.860024,-100.201996,2165.0,,US,US-TX,Fort McKavett,no,06TT,,06TT,,,,POINT (-100.20199599999998 30.860024),https://www.openstreetmap.org/edit?editor=id#map=18/30.860024/-100.201996
6910,06VA,small_airport,Mount Horeb Field,38.249000549316406,-78.85530090332031,1160.0,,US,US-VA,Grottoes,no,06VA,,06VA,,,,POINT (-78.8553009033203 38.249000549316406),https://www.openstreetmap.org/edit?editor=id#map=18/38.249001/-78.855301
350921,06XA,small_airport,J & W Windy Hill Airport,33.445914,-96.57079,784.0,,US,US-TX,Van Alstyne,no,06XA,,06XA,,,,POINT (-96.57079 33.445914),https://www.openstreetmap.org/edit?editor=id#map=18/33.445914/-96.570790
514275,07AN,small_airport,Bro Majors Airfield,62.825556,-149.910807,1408.0,,US,US-AK,Trapper Creek,no,07AN,,07AN,,,,POINT (-149.91080699999998 62.825556),https://www.openstreetmap.org/edit?editor=id#map=18/62.825556/-149.910807
519833,07GE,small_airport,Pope Pate Field,31.555662,-83.27849,335.0,,US,US-GA,Ocilla,no,07GE,,07GE,,,,POINT (-83.27848999999999 31.555661999999998),https://www.openstreetmap.org/edit?editor=id#map=18/31.555662/-83.278490
6928,07I,seaplane_base,Lake Monroe Seaplane Base,39.05870056152344,-86.44609832763672,538.0,,US,US-IN,Bloomington,no,07I,,07I,,,,POINT (-86.44609832763672 39.05870056152344),https://www.openstreetmap.org/edit?editor=id#map=18/39.058701/-86.446098
355064,07IA,small_airport,Hoskins Landing,40.647888,-95.02135,971.0,,US,US-IA,Shambaugh,no,07IA,,07IA,,,,POINT (-95.02134999999998 40.647888),https://www.openstreetmap.org/edit?editor=id#map=18/40.647888/-95.021350
6938,07MD,small_airport,Baugher's Orchard Airport,39.608299255371094,-77.0519027709961,700.0,,US,US-MD,Westminster,no,07MD,,07MD,,,,POINT (-77.05190277099608 39.60829925537109),https://www.openstreetmap.org/edit?editor=id#map=18/39.608299/-77.051903
324410,07NV,small_airport,Border Line Farm Airport,39.102239,-114.053472,5120.0,,US,US-NV,Baker,no,07NV,,07NV,,,,POINT (-114.053472 39.102239),https://www.openstreetmap.org/edit?editor=id#map=18/39.102239/-114.053472
6950,07OK,small_airport,Pleasant Valley Airport,34.633399963378906,-99.03369903564452,1322.0,,US,US-OK,Snyder,no,07OK,,07OK,,,,POINT (-99.0336990356445 34.633399963378906),https://www.openstreetmap.org/edit?editor=id#map=18/34.633400/-99.033699
6951,07OR,small_airport,Bruce's Airport,45.42179870605469,-122.62000274658205,250.0,,US,US-OR,Milwaukie,no,07OR,,07OR,,,,POINT (-122.62000274658205 45.42179870605468),https://www.openstreetmap.org/edit?editor=id#map=18/45.421799/-122.620003
332752,08AL,seaplane_base,Little Lagoon Seaplane Base,30.243717,-87.754678,8.0,,US,US-AL,Gulf Shores,no,08AL,,08AL,,,,POINT (-87.754678 30.243717),https://www.openstreetmap.org/edit?editor=id#map=18/30.243717/-87.754678
6968,08CL,small_airport,Kistler Ranch Airport,37.858272,-120.552079,1025.0,,US,US-CA,Jamestown,no,08CL,,08CL,,,,POINT (-120.552079 37.85827199999999),https://www.openstreetmap.org/edit?editor=id#map=18/37.858272/-120.552079
6986,08MA,small_airport,Wormid Airport,42.29399871826172,-71.49620056152344,360.0,,US,US-MA,Southborough,no,08MA,,08MA,,,,POINT (-71.49620056152344 42.29399871826172),https://www.openstreetmap.org/edit?editor=id#map=18/42.293999/-71.496201
7000,08NY,small_airport,Md1 Airport,41.36809921264648,-74.50559997558594,650.0,,US,US-NY,Middletown,no,08NY,,08NY,,,,POINT (-74.50559997558594 41.368099212646484),https://www.openstreetmap.org/edit?editor=id#map=18/41.368099/-74.505600
7001,08OH,small_airport,Kenley Airport,41.29169845581055,-80.5636978149414,1230.0,,US,US-OH,Hartford,no,08OH,,08OH,,,,POINT (-80.5636978149414 41.29169845581055),https://www.openstreetmap.org/edit?editor=id#map=18/41.291698/-80.563698
327859,08OL,small_airport,Broken B Airport,35.408087,-98.605477,1518.0,,US,US-OK,Hydro,no,08OL,,08OL,,,,POINT (-98.60547699999998 35.408087),https://www.openstreetmap.org/edit?editor=id#map=18/35.408087/-98.605477
343404,08TT,small_airport,LZ Tango Charlie Airport,30.308803,-99.022228,2054.0,,US,US-TX,Fredericksburg,no,08TT,,08TT,,,,POINT (-99.022228 30.308803000000005),https://www.openstreetmap.org/edit?editor=id#map=18/30.308803/-99.022228
545821,08UT,small_airport,Pinelodge Runway,38.335017,-109.135176,7175.0,,US,US-UT,La Sal,no,08UT,,08UT,,,,POINT (-109.135176 38.33501700000001),https://www.openstreetmap.org/edit?editor=id#map=18/38.335017/-109.135176
322194,08XA,small_airport,Knolle Ranch Airport,30.479253,-96.504031,280.0,,US,US-TX,Snook,no,08XA,,08XA,,,,POINT (-96.50403099999998 30.479252999999996),https://www.openstreetmap.org/edit?editor=id#map=18/30.479253/-96.504031
7024,09GA,small_airport,Sunbelt Strip,31.120995,-83.67063,230.0,,US,US-GA,Moultrie,no,09GA,,09GA,,,,POINT (-83.67063 31.120994999999994),https://www.openstreetmap.org/edit?editor=id#map=18/31.120995/-83.670630
7028,09II,small_airport,Gibbons Field,38.44729995727539,-86.44499969482422,880.0,,US,US-IN,Valeene,no,09II,,09II,,,,POINT (-86.44499969482422 38.44729995727538),https://www.openstreetmap.org/edit?editor=id#map=18/38.447300/-86.445000
523550,09MT,small_airport,Paint Creek Ranch Airport,45.909346,-113.763183,5060.0,,US,US-MT,Sula,no,09MT,,09MT,,,,POINT (-113.763183 45.90934599999999),https://www.openstreetmap.org/edit?editor=id#map=18/45.909346/-113.763183
7047,09OK,small_airport,Ragtime Aerodrome,36.35449981689453,-95.86389923095705,700.0,,US,US-OK,Collinsville,no,09OK,,09OK,,,,POINT (-95.86389923095703 36.35449981689453),https://www.openstreetmap.org/edit?editor=id#map=18/36.354500/-95.863899
7056,09VA,small_airport,Alum Ridge STOLport,36.97650146484375,-80.493896484375,2375.0,,US,US-VA,Floyd,no,09VA,,09VA,,,,POINT (-80.49389648437499 36.97650146484376),https://www.openstreetmap.org/edit?editor=id#map=18/36.976501/-80.493896
7084,0AR2,small_airport,Mission Field-Marotti Memorial Airport,35.18853,-90.30359,217.0,,US,US-AR,Crawfordsville,no,0AR2,,0AR2,,,,POINT (-90.30358999999999 35.18853000000001),https://www.openstreetmap.org/edit?editor=id#map=18/35.188530/-90.303590
7119,0CD2,small_airport,Foxx Valley Airport,38.652500152600005,-104.23400116,5800.0,,US,US-CO,Yoder,no,0CD2,,0CD2,,,,POINT (-104.23400115999999 38.6525001526),https://www.openstreetmap.org/edit?editor=id#map=18/38.652500/-104.234001
324643,0CN2,small_airport,Sutter Butte Dusters Airport,39.228622,-121.688265,67.0,,US,US-CA,Live Oak,no,0CN2,,0CN2,,,,POINT (-121.68826499999997 39.228621999999994),https://www.openstreetmap.org/edit?editor=id#map=18/39.228622/-121.688265
7138,0CO1,small_airport,Dave's Airport,40.0332984924,-105.124000549,5170.0,,US,US-CO,Louisville,no,0CO1,,0CO1,,,,POINT (-105.124000549 40.03329849239999),https://www.openstreetmap.org/edit?editor=id#map=18/40.033298/-105.124001
7143,0CO6,small_airport,Flying M & M Ranch Airport,38.2193984985,-108.212997437,8000.0,,US,US-CO,Norwood,no,0CO6,,0CO6,,,,POINT (-108.21299743699998 38.2193984985),https://www.openstreetmap.org/edit?editor=id#map=18/38.219398/-108.212997
320961,0FA5,seaplane_base,Briley Farm Seaplane Base,28.5727778,-81.6286111,66.0,,US,US-FL,Oakland,no,0FA5,,0FA5,,,,POINT (-81.62861109999999 28.5727778),https://www.openstreetmap.org/edit?editor=id#map=18/28.572778/-81.628611
7190,0GA8,small_airport,Paso Fino Farm Airport,30.88031,-83.414443,200.0,,US,US-GA,Valdosta,no,0GA8,,0GA8,,,,POINT (-83.414443 30.880310000000012),https://www.openstreetmap.org/edit?editor=id#map=18/30.880310/-83.414443
509601,0IA,seaplane_base,Barbee Lake Seaplane Base,41.284675,-85.703814,838.0,,US,US-IN,Warsaw,no,0IA,,0IA,,,,POINT (-85.70381399999998 41.28467499999999),https://www.openstreetmap.org/edit?editor=id#map=18/41.284675/-85.703814
352229,0IL7,small_airport,Davis Restricted Landing Area,39.782917,-88.546708,682.0,,US,US-IL,Hammond,no,0IL7,,0IL7,,,,POINT (-88.546708 39.782917),https://www.openstreetmap.org/edit?editor=id#map=18/39.782917/-88.546708
354111,0KS5,small_airport,Oasis Aerodrome,38.450666,-98.797646,1914.0,,US,US-KS,Great Bend,no,0KS5,,0KS5,,,,POINT (-98.79764599999999 38.450666),https://www.openstreetmap.org/edit?editor=id#map=18/38.450666/-98.797646
7257,0KS7,small_airport,Mono Aircraft Airport,37.69279861450195,-97.88639831542967,1450.0,,US,US-KS,Cheney,no,0KS7,,0KS7,,,,POINT (-97.88639831542966 37.692798614501946),https://www.openstreetmap.org/edit?editor=id#map=18/37.692799/-97.886398
7264,0KY4,small_airport,Cambron Field,37.56439971923828,-87.08190155029297,427.0,,US,US-KY,Owensboro,no,0KY4,,0KY4,,,,POINT (-87.08190155029297 37.56439971923828),https://www.openstreetmap.org/edit?editor=id#map=18/37.564400/-87.081902
7285,0LL2,small_airport,Murk's Strip,40.738899231,-90.3806991577,700.0,,US,US-IL,St. Augustine,no,0LL2,,0LL2,,,,POINT (-90.38069915769998 40.73889923099999),https://www.openstreetmap.org/edit?editor=id#map=18/40.738899/-90.380699
7298,0LS6,small_airport,Dufour Airport,30.787700653076172,-92.05039978027344,42.0,,US,US-LA,Morrow,no,0LS6,,0LS6,,,,POINT (-92.05039978027344 30.78770065307617),https://www.openstreetmap.org/edit?editor=id#map=18/30.787701/-92.050400
7323,0MI3,small_airport,Kelleys Airport,44.633399963378906,-84.4833984375,1000.0,,US,US-MI,Grayling,no,0MI3,,0MI3,,,,POINT (-84.48339843749999 44.633399963378906),https://www.openstreetmap.org/edit?editor=id#map=18/44.633400/-84.483398
7327,0MI8,small_airport,Twin Lakes Airport,44.894115,-84.297818,1275.0,,US,US-MI,Lewiston,no,,,MI55,,,0MI8,POINT (-84.297818 44.894115),https://www.openstreetmap.org/edit?editor=id#map=18/44.894115/-84.297818
7329,0MN0,seaplane_base,Winner's Landing Seaplane Base,44.79690170288086,-92.98410034179688,690.0,,US,US-MN,St Paul Park,no,0MN0,,0MN0,,,,POINT (-92.98410034179686 44.79690170288086),https://www.openstreetmap.org/edit?editor=id#map=18/44.796902/-92.984100
7341,0MO2,small_airport,Short-N-Ruff Airport,37.78670120239258,-90.78009796142578,950.0,,US,US-MO,Caledonia,no,0MO2,,0MO2,,,,POINT (-90.78009796142577 37.78670120239258),https://www.openstreetmap.org/edit?editor=id#map=18/37.786701/-90.780098
7351,0MS2,small_airport,Morgan Field,31.54179954528809,-89.3917007446289,300.0,,US,US-MS,Seminary,no,0MS2,,0MS2,,,,POINT (-89.3917007446289 31.54179954528809),https://www.openstreetmap.org/edit?editor=id#map=18/31.541800/-89.391701
7368,0MU0,small_airport,Eagle Field,37.23469924926758,-91.09359741210938,784.0,,US,US-MO,Ellington,no,0MU0,,0MU0,,,,POINT (-91.09359741210936 37.23469924926758),https://www.openstreetmap.org/edit?editor=id#map=18/37.234699/-91.093597
7375,0MU7,small_airport,Lambs Field,38.875,-94.13970184326172,1070.0,,US,US-MO,Lone Jack,no,0MU7,,0MU7,,,,POINT (-94.13970184326172 38.87500000000001),https://www.openstreetmap.org/edit?editor=id#map=18/38.875000/-94.139702
334329,0MU9,small_airport,RPM Airport,37.337894,-93.164084,1282.0,,US,US-MO,Fair Grove,no,0MU9,,0MU9,,,,POINT (-93.164084 37.337894),https://www.openstreetmap.org/edit?editor=id#map=18/37.337894/-93.164084
7404,0NE5,small_airport,Newman Airport,41.02109909057617,-102.01799774169922,3525.0,,US,US-NE,Big Springs,no,0NE5,,0NE5,,,,POINT (-102.0179977416992 41.021099090576165),https://www.openstreetmap.org/edit?editor=id#map=18/41.021099/-102.017998
7411,0NJ5,small_airport,Fla-Net Airport,40.88589859008789,-74.70570373535156,1040.0,,US,US-NJ,Netcong,no,0NJ5,,0NJ5,,,,POINT (-74.70570373535155 40.88589859008788),https://www.openstreetmap.org/edit?editor=id#map=18/40.885899/-74.705704
7412,0NJ6,small_airport,Dix Field,39.31679916381836,-74.63289642333984,8.0,,US,US-NJ,Linwood,no,0NJ6,,0NJ6,,,,POINT (-74.63289642333983 39.31679916381836),https://www.openstreetmap.org/edit?editor=id#map=18/39.316799/-74.632896
7430,0NY1,small_airport,Russell Field,43.139198303222656,-73.6531982421875,260.0,,US,US-NY,Northumberland,no,0NY1,,0NY1,,,,POINT (-73.6531982421875 43.13919830322265),https://www.openstreetmap.org/edit?editor=id#map=18/43.139198/-73.653198
7442,0OH6,small_airport,Fry Field,39.60060119628906,-84.01969909667969,775.0,,US,US-OH,Spring Valley,no,0OH6,,0OH6,,,,POINT (-84.01969909667969 39.600601196289055),https://www.openstreetmap.org/edit?editor=id#map=18/39.600601/-84.019699
7448,0OI2,small_airport,Unger Field,39.35979843139648,-83.4177017211914,940.0,,US,US-OH,Greenfield,no,0OI2,,0OI2,,,,POINT (-83.4177017211914 39.35979843139648),https://www.openstreetmap.org/edit?editor=id#map=18/39.359798/-83.417702
7452,0OI9,small_airport,Hidden Quarry Airport,38.894500732421875,-83.1135025024414,830.0,,US,US-OH,Lucasville,no,0OI9,,0OI9,,,,POINT (-83.11350250244139 38.894500732421875),https://www.openstreetmap.org/edit?editor=id#map=18/38.894501/-83.113503
7457,0OK4,small_airport,Rock Creek Farm Airport,34.66059875488281,-96.25360107421876,730.0,,US,US-OK,Coal Gate,no,0OK4,,0OK4,,,,POINT (-96.25360107421875 34.660598754882805),https://www.openstreetmap.org/edit?editor=id#map=18/34.660599/-96.253601
7462,0OK9,small_airport,Crystal Airport,36.213401794433594,-96.63700103759766,1016.0,,US,US-OK,Jennings,no,0OK9,,0OK9,,,,POINT (-96.63700103759764 36.2134017944336),https://www.openstreetmap.org/edit?editor=id#map=18/36.213402/-96.637001
7480,0PA4,small_airport,Ecko Field,40.23759841918945,-76.72470092773438,380.0,,US,US-PA,Hummelstown,no,0PA4,,0PA4,,,,POINT (-76.72470092773436 40.23759841918945),https://www.openstreetmap.org/edit?editor=id#map=18/40.237598/-76.724701
7488,0PN2,small_airport,Flying Acres Airport,41.07310104370117,-80.07029724121094,1247.0,,US,US-PA,Slippery Rock,no,0PN2,,0PN2,,,,POINT (-80.07029724121094 41.073101043701165),https://www.openstreetmap.org/edit?editor=id#map=18/41.073101/-80.070297
7524,0SD8,small_airport,Juhnke Airport,43.78279876708984,-100.29299926757812,1900.0,,US,US-SD,Vivian,no,0SD8,,0SD8,,,,POINT (-100.29299926757812 43.78279876708984),https://www.openstreetmap.org/edit?editor=id#map=18/43.782799/-100.292999
7538,0TE0,small_airport,Robertson Ranch Airport,29.69300079345703,-101.16200256347656,1663.0,,US,US-TX,Comstock,no,0TE0,,0TE0,,,,POINT (-101.16200256347656 29.69300079345703),https://www.openstreetmap.org/edit?editor=id#map=18/29.693001/-101.162003
7592,0VA7,small_airport,Flatrock Air Strip,37.52320098876953,-77.81939697265625,425.0,,US,US-VA,Richmond,no,0VA7,,0VA7,,,,POINT (-77.81939697265625 37.523200988769524),https://www.openstreetmap.org/edit?editor=id#map=18/37.523201/-77.819397
7594,0VA9,small_airport,Handy Strip,37.4473991394043,-76.45379638671875,8.0,,US,US-VA,Gloucester Court House,no,0VA9,,0VA9,,,,POINT (-76.45379638671874 37.44739913940429),https://www.openstreetmap.org/edit?editor=id#map=18/37.447399/-76.453796
7610,0WI2,small_airport,Doering Farms Airfield,43.20140075683594,-88.3333969116211,910.0,,US,US-WI,Monches,no,0WI2,,0WI2,,,,POINT (-88.3333969116211 43.20140075683594),https://www.openstreetmap.org/edit?editor=id#map=18/43.201401/-88.333397
7617,0WI9,small_airport,Mc Manus Hoonch-Na-Shee-Kaw Airport,42.9314002991,-89.3386993408,931.0,,US,US-WI,Oregon,no,0WI9,,0WI9,,,,POINT (-89.3386993408 42.9314002991),https://www.openstreetmap.org/edit?editor=id#map=18/42.931400/-89.338699
346234,0WS7,small_airport,Rockdale Airport,42.970979,-89.028482,825.0,,US,US-WI,Rockdale,no,0WS7,,0WS7,,,,POINT (-89.028482 42.97097899999999),https://www.openstreetmap.org/edit?editor=id#map=18/42.970979/-89.028482
7636,0XS0,small_airport,Diamond H Ranch Airport,28.400299072265625,-99.55870056152344,511.0,,US,US-TX,Catarina,no,0XS0,,0XS0,,,,POINT (-99.55870056152344 28.400299072265632),https://www.openstreetmap.org/edit?editor=id#map=18/28.400299/-99.558701
7645,0Y4,small_airport,Lambert Fechter Municipal Airport,43.16419982910156,-95.47000122070312,1452.0,,US,US-IA,Hartley,no,0Y4,,0Y4,,,,POINT (-95.47000122070311 43.164199829101555),https://www.openstreetmap.org/edit?editor=id#map=18/43.164200/-95.470001
7684,10OH,small_airport,Zoellner Airport,41.402517,-82.629333,617.0,,US,US-OH,Huron,no,10OH,,10OH,,,,POINT (-82.629333 41.402517),https://www.openstreetmap.org/edit?editor=id#map=18/41.402517/-82.629333
345772,10XA,small_airport,Sterling Airport,28.680794,-96.661647,30.0,,US,US-TX,Port Lavaca,no,10XA,,10XA,,,,POINT (-96.661647 28.680793999999995),https://www.openstreetmap.org/edit?editor=id#map=18/28.680794/-96.661647
7721,11M,small_airport,Fulton-Itawamba County Airport,34.352001,-88.377296,450.0,,US,US-MS,Fulton,no,11M,,11M,,https://en.wikipedia.org/wiki/Fulton-Itawamba_County_Airport,,POINT (-88.377296 34.352001),https://www.openstreetmap.org/edit?editor=id#map=18/34.352001/-88.377296
323292,11MU,small_airport,Rocky Top Airfield,36.657916,-92.465578,1273.0,,US,US-MO,Gainesville,no,11MU,,11MU,,,,POINT (-92.465578 36.657916),https://www.openstreetmap.org/edit?editor=id#map=18/36.657916/-92.465578
322230,12CN,small_airport,Richter Airport,39.268306,-122.116689,57.0,,US,US-CA,Maxwell,no,12CN,,12CN,,,,POINT (-122.116689 39.268306),https://www.openstreetmap.org/edit?editor=id#map=18/39.268306/-122.116689
7757,12FL,seaplane_base,Timberlachen Seaplane Base,28.59280014038086,-81.40390014648438,89.0,,US,US-FL,Orlando,no,12FL,,12FL,,,,POINT (-81.40390014648436 28.592800140380856),https://www.openstreetmap.org/edit?editor=id#map=18/28.592800/-81.403900
7760,12I,seaplane_base,Brookville Reservoir Seaplane Base,39.51029968261719,-85.0,748.0,,US,US-IN,Brookville,no,12I,,12I,,,,POINT (-85 39.51029968261719),https://www.openstreetmap.org/edit?editor=id#map=18/39.510300/-85.000000
7770,12LA,small_airport,Kml Airport,30.27589988708496,-93.3573989868164,20.0,,US,US-LA,Sulphur,no,12LA,,12LA,,,,POINT (-93.3573989868164 30.275899887084954),https://www.openstreetmap.org/edit?editor=id#map=18/30.275900/-93.357399
7788,12OH,small_airport,McGregor Airfield,39.834773,-84.333486,940.0,,US,US-OH,Brookville,no,12OH,,12OH,,,,POINT (-84.33348599999998 39.83477299999999),https://www.openstreetmap.org/edit?editor=id#map=18/39.834773/-84.333486
347056,12TT,small_airport,D An P Farm Airport,33.593768,-97.100816,771.0,,US,US-TX,Gainesville,no,12TT,,12TT,,,,POINT (-97.10081599999998 33.593768),https://www.openstreetmap.org/edit?editor=id#map=18/33.593768/-97.100816
321471,12XA,small_airport,Wood Farm Airfield,32.0393333,-102.3485833,2950.0,,US,US-TX,Gardendale,no,12XA,,12XA,,,,POINT (-102.34858330000002 32.0393333),https://www.openstreetmap.org/edit?editor=id#map=18/32.039333/-102.348583
7818,13GE,small_airport,Holt Airpark,32.360801696777344,-82.31809997558594,280.0,,US,US-GA,Oak Park,no,13GE,,13GE,,,,POINT (-82.31809997558592 32.360801696777344),https://www.openstreetmap.org/edit?editor=id#map=18/32.360802/-82.318100
7819,13IA,small_airport,Hillside Stables Airport,42.04570007324219,-90.19110107421876,760.0,,US,US-IA,Sabula,no,13IA,,13IA,,,,POINT (-90.19110107421876 42.04570007324219),https://www.openstreetmap.org/edit?editor=id#map=18/42.045700/-90.191101
346847,13XA,small_airport,Flying 5B Ranch Airport,31.951789,-97.834888,1010.0,,US,US-TX,Iredell,no,13XA,,13XA,,,,POINT (-97.834888 31.95178899999999),https://www.openstreetmap.org/edit?editor=id#map=18/31.951789/-97.834888
430401,14IA,small_airport,East River Airport,43.360281,-94.442364,1235.0,,US,US-IA,Armstrong,no,14IA,,14IA,,,,POINT (-94.44236399999998 43.36028100000001),https://www.openstreetmap.org/edit?editor=id#map=18/43.360281/-94.442364
7881,14ID,small_airport,Peaceful Cove Airport,43.680999755859375,-116.2030029296875,2920.0,,US,US-ID,Boise,no,14ID,,14ID,,,,POINT (-116.20300292968747 43.68099975585938),https://www.openstreetmap.org/edit?editor=id#map=18/43.681000/-116.203003
7898,14NC,small_airport,Camp Davis Marine Corps Outlying Field,34.516458,-77.545109,60.0,,US,US-NC,Holly Ridge,no,14NC,,14NC,,https://en.wikipedia.org/wiki/Marine_Corps_Outlying_Field_Camp_Davis,"Camp Davis MCOLF, DZ Pheasant, LZ Duck",POINT (-77.54510899999998 34.51645799999999),https://www.openstreetmap.org/edit?editor=id#map=18/34.516458/-77.545109
343405,14TT,small_airport,Mathers Field,36.047147,-100.520803,2688.0,,US,US-TX,Canadian,no,14TT,,14TT,,,,POINT (-100.52080299999999 36.047147),https://www.openstreetmap.org/edit?editor=id#map=18/36.047147/-100.520803
299705,14XA,small_airport,Frog Pond Airport,33.657888,-96.788285,686.0,,US,US-TX,Sherman,no,14XA,,14XA,,,,POINT (-96.78828500000002 33.657888),https://www.openstreetmap.org/edit?editor=id#map=18/33.657888/-96.788285
7966,15TA,small_airport,J R Ranch Airport,30.9367,-97.89932,1125.0,,US,US-TX,Briggs,no,15TA,,15TA,,,,POINT (-97.89932 30.93670000000001),https://www.openstreetmap.org/edit?editor=id#map=18/30.936700/-97.899320
526232,15TT,small_airport,Fordlane Flyers Airport,33.116379,-96.553817,547.0,,US,US-TX,Lucas,no,15TT,,15TT,,,,POINT (-96.55381700000001 33.116379),https://www.openstreetmap.org/edit?editor=id#map=18/33.116379/-96.553817
7980,16AR,small_airport,Heifer Creek Ranch Airport,35.30110168457031,-92.57330322265624,730.0,,US,US-AR,Springfield,no,16AR,,16AR,,,,POINT (-92.57330322265624 35.30110168457032),https://www.openstreetmap.org/edit?editor=id#map=18/35.301102/-92.573303
45322,16CO,small_airport,Dry Pen Airport,39.40227,-108.07602,5331.0,,US,US-CO,Parachute,no,16CO,,16CO,,,,POINT (-108.07602 39.40227),https://www.openstreetmap.org/edit?editor=id#map=18/39.402270/-108.076020
7993,16IS,small_airport,Kellums Airport,37.577608,-89.008583,720.0,,US,US-IL,Goreville,no,16IS,,16IS,,,,POINT (-89.00858299999999 37.57760799999999),https://www.openstreetmap.org/edit?editor=id#map=18/37.577608/-89.008583
8015,16PA,small_airport,Gregg Airport,40.18059921264648,-80.12760162353516,1200.0,,US,US-PA,Eighty Four,no,16PA,,16PA,,,,POINT (-80.12760162353516 40.18059921264647),https://www.openstreetmap.org/edit?editor=id#map=18/40.180599/-80.127602
338868,16TT,small_airport,16 L Ranch Airport,31.093611,-96.04375,390.0,,US,US-TX,Normangee,no,16TT,,16TT,,,,POINT (-96.04374999999999 31.093610999999996),https://www.openstreetmap.org/edit?editor=id#map=18/31.093611/-96.043750
533578,16UT,small_airport,Henrichsen Field,41.444317,-112.048074,4266.0,,US,US-UT,Perry,no,16UT,,16UT,,,,POINT (-112.04807400000001 41.444317),https://www.openstreetmap.org/edit?editor=id#map=18/41.444317/-112.048074
8047,17LS,small_airport,Yankee Field,30.611979,-91.985704,45.0,,US,US-LA,Port Barre,no,17LS,,17LS,,,,POINT (-91.98570399999998 30.611979000000012),https://www.openstreetmap.org/edit?editor=id#map=18/30.611979/-91.985704
324734,17MU,small_airport,B-B Airfield,39.682791,-94.372097,1045.0,,US,US-MO,Osborn,no,17MU,,17MU,,,,POINT (-94.37209700000001 39.68279100000001),https://www.openstreetmap.org/edit?editor=id#map=18/39.682791/-94.372097
8060,17OH,small_airport,Kosik Private Airport,41.24259948730469,-82.27020263671875,855.0,,US,US-OH,Kipton,no,17OH,,17OH,,,,POINT (-82.27020263671874 41.24259948730469),https://www.openstreetmap.org/edit?editor=id#map=18/41.242599/-82.270203
8074,17U,small_airport,Jake Garn Airport,40.263699,-112.021004,4845.0,,US,US-UT,Eagle Mountain,no,17U,,17U,,https://en.wikipedia.org/wiki/Jake_Garn_Airport,,POINT (-112.02100399999999 40.263699),https://www.openstreetmap.org/edit?editor=id#map=18/40.263699/-112.021004
299706,17XA,small_airport,Jacksonville / Hunter Field,32.017778,-95.7969444445,580.0,,US,US-TX,Jacksonville,no,17XA,,17XA,,,,POINT (-95.7969444445 32.017778),https://www.openstreetmap.org/edit?editor=id#map=18/32.017778/-95.796944
529876,18GE,small_airport,Lefty's Landing,32.045495,-82.467577,231.0,,US,US-GA,Uvalda,no,18GE,,18GE,,,,POINT (-82.467577 32.045494999999995),https://www.openstreetmap.org/edit?editor=id#map=18/32.045495/-82.467577
505263,18MS,small_airport,Johns Landing,32.453333,-90.363889,222.0,,US,US-MS,Jackson,no,18MS,,18MS,,,,POINT (-90.363889 32.45333299999999),https://www.openstreetmap.org/edit?editor=id#map=18/32.453333/-90.363889
8106,18NC,small_airport,Lanni Field,35.888999938964844,-81.61370086669922,1160.0,,US,US-NC,Lenoir,no,18NC,,18NC,,,,POINT (-81.61370086669922 35.888999938964844),https://www.openstreetmap.org/edit?editor=id#map=18/35.889000/-81.613701
350293,18ND,small_airport,Bearpaw Airport,46.779094,-100.514856,1744.0,,US,US-ND,Menoken,no,18ND,,18ND,,,,POINT (-100.51485599999998 46.77909399999999),https://www.openstreetmap.org/edit?editor=id#map=18/46.779094/-100.514856
8107,18NE,small_airport,Doc's Airport,40.51390075683594,-97.61060333251952,1640.0,,US,US-NE,Geneva,no,18NE,,18NE,,,,POINT (-97.61060333251952 40.51390075683594),https://www.openstreetmap.org/edit?editor=id#map=18/40.513901/-97.610603
8110,18OH,small_airport,Jer-Mar Airpark,41.25619888305664,-82.143798828125,800.0,,US,US-OH,Lagrange,no,18OH,,18OH,,,,POINT (-82.14379882812499 41.25619888305664),https://www.openstreetmap.org/edit?editor=id#map=18/41.256199/-82.143799
8111,18OI,small_airport,Boggy Bottoms Airport,41.419615,-82.97133,575.0,,US,US-OH,Vickery,no,18OI,,18OI,,,,POINT (-82.97132999999998 41.41961500000001),https://www.openstreetmap.org/edit?editor=id#map=18/41.419615/-82.971330
8113,18OR,small_airport,Red's Field,45.0918655396,-123.182350159,190.0,,US,US-OR,Amity,no,18OR,,18OR,,,,POINT (-123.182350159 45.09186553959999),https://www.openstreetmap.org/edit?editor=id#map=18/45.091866/-123.182350
8114,18PA,small_airport,Slack Airport,40.30009841918945,-75.08290100097656,275.0,,US,US-PA,Forest Grove,no,18PA,,18PA,,,,POINT (-75.08290100097656 40.30009841918945),https://www.openstreetmap.org/edit?editor=id#map=18/40.300098/-75.082901
310113,18XA,small_airport,Lantana Ridge Airport,28.6591,-97.5987472,250.0,,US,US-TX,Goliad,no,18XA,,18XA,,,,POINT (-97.5987472 28.659099999999995),https://www.openstreetmap.org/edit?editor=id#map=18/28.659100/-97.598747
8128,19AR,small_airport,Naylor field,35.15670013,-92.22419739,230.0,,US,US-AR,Naylor,no,19AR,,19AR,,,,POINT (-92.22419738999999 35.15670013),https://www.openstreetmap.org/edit?editor=id#map=18/35.156700/-92.224197
8142,19KY,small_airport,Conrads Airport,38.70650100708008,-84.59989929199219,940.0,,US,US-KY,Dry Ridge,no,19KY,,19KY,,,,POINT (-84.59989929199219 38.70650100708008),https://www.openstreetmap.org/edit?editor=id#map=18/38.706501/-84.599899
331484,19MN,seaplane_base,Greseth Seaplane Base,45.174765,-93.765091,970.0,,US,US-MN,Buffalo,no,19MN,,19MN,,,,POINT (-93.765091 45.174765),https://www.openstreetmap.org/edit?editor=id#map=18/45.174765/-93.765091
8160,19PA,small_airport,Lake Airport,41.117000579833984,-76.52079772949219,750.0,,US,US-PA,Millville,no,19PA,,19PA,,,,POINT (-76.52079772949219 41.11700057983398),https://www.openstreetmap.org/edit?editor=id#map=18/41.117001/-76.520798
8162,19T,seaplane_base,Tan Tar A Resort Seaplane Base,38.12596,-92.71642,659.0,,US,US-MO,Osage Beach,no,,,19T,,,,POINT (-92.71642 38.12595999999999),https://www.openstreetmap.org/edit?editor=id#map=18/38.125960/-92.716420
8234,1CD4,small_airport,Eagle Soaring Airport,40.509300231933594,-106.94300079345705,6600.0,,US,US-CO,Steam Boat Springs,no,1CD4,,1CD4,,,,POINT (-106.94300079345705 40.50930023193359),https://www.openstreetmap.org/edit?editor=id#map=18/40.509300/-106.943001
8252,1CO7,small_airport,Dodsworth Airport,38.55139923095703,-105.99199676513672,7480.0,,US,US-CO,Salida,no,1CO7,,1CO7,,,,POINT (-105.9919967651367 38.55139923095703),https://www.openstreetmap.org/edit?editor=id#map=18/38.551399/-105.991997
8290,1FL5,seaplane_base,West Bay Creek Seaplane Base,30.302099227905273,-85.8644027709961,,,US,US-FL,West Bay,no,1FL5,,1FL5,,,,POINT (-85.8644027709961 30.30209922790527),https://www.openstreetmap.org/edit?editor=id#map=18/30.302099/-85.864403
8311,1GE5,small_airport,Flying D Airport,33.101200103759766,-84.39350128173828,838.0,,US,US-GA,Concord,no,1GE5,,1GE5,,,,POINT (-84.39350128173827 33.101200103759766),https://www.openstreetmap.org/edit?editor=id#map=18/33.101200/-84.393501
8316,1H1,small_airport,Airlane Enterprises Airport,43.205101013183594,-76.17880249023438,385.0,,US,US-NY,Clay,no,1H1,,1H1,,,,POINT (-76.17880249023436 43.205101013183594),https://www.openstreetmap.org/edit?editor=id#map=18/43.205101/-76.178802
8329,1IA6,small_airport,Aero-Lane Airport,40.8849983215332,-95.48529815673828,1134.0,,US,US-IA,Randolph,no,1IA6,,1IA6,,,,POINT (-95.48529815673827 40.8849983215332),https://www.openstreetmap.org/edit?editor=id#map=18/40.884998/-95.485298
8339,1ID9,small_airport,Skyline STOLport,42.78060150146485,-112.1709976196289,6150.0,,US,US-ID,Inkom,no,1ID9,,1ID9,,,,POINT (-112.1709976196289 42.780601501464844),https://www.openstreetmap.org/edit?editor=id#map=18/42.780602/-112.170998
8343,1II4,small_airport,Amy Airport,38.125099182128906,-86.16220092773438,665.0,,US,US-IN,Corydon,no,1II4,,1II4,,,,POINT (-86.16220092773436 38.125099182128906),https://www.openstreetmap.org/edit?editor=id#map=18/38.125099/-86.162201
8358,1IN1,small_airport,Shearer STOLport,39.488399505615234,-86.6530990600586,750.0,,US,US-IN,Lewisville,no,1IN1,,1IN1,,,,POINT (-86.6530990600586 39.488399505615234),https://www.openstreetmap.org/edit?editor=id#map=18/39.488400/-86.653099
8401,1KY7,small_airport,Jordan Hill Farm Airport,37.83250045776367,-84.18080139160156,910.0,,US,US-KY,Richmond,no,1KY7,,1KY7,,,,POINT (-84.18080139160156 37.83250045776368),https://www.openstreetmap.org/edit?editor=id#map=18/37.832500/-84.180801
8405,1LA1,small_airport,Triche Field,29.98349952697754,-90.43479919433594,10.0,,US,US-LA,Hahnville,no,1LA1,,1LA1,,,,POINT (-90.43479919433592 29.98349952697753),https://www.openstreetmap.org/edit?editor=id#map=18/29.983500/-90.434799
8414,1LL0,small_airport,Boondox Field,41.329200744628906,-88.60009765625,625.0,,US,US-IL,Seneca,no,1LL0,,1LL0,,,,POINT (-88.60009765624999 41.329200744628906),https://www.openstreetmap.org/edit?editor=id#map=18/41.329201/-88.600098
8450,1MI0,seaplane_base,Ashman Island Seaplane Base,46.068599700927734,-83.72419738769531,580.0,,US,US-MI,Drummond Island,no,1MI0,,1MI0,,,,POINT (-83.7241973876953 46.068599700927734),https://www.openstreetmap.org/edit?editor=id#map=18/46.068600/-83.724197
8477,1MO9,small_airport,Eagle's Point & Red Barn Village Airpark,37.47919845581055,-93.85160064697266,1040.0,,US,US-MO,Greenfield,no,1MO9,,1MO9,,,,POINT (-93.85160064697266 37.47919845581054),https://www.openstreetmap.org/edit?editor=id#map=18/37.479198/-93.851601
8520,1NC4,small_airport,Bell Strip,34.995399475097656,-77.25769805908203,35.0,,US,US-NC,Pollocksville,no,1NC4,,1NC4,,,,POINT (-77.25769805908203 34.99539947509765),https://www.openstreetmap.org/edit?editor=id#map=18/34.995399/-77.257698
8529,1NE0,small_airport,Higgins Bros Airport,42.31669998168945,-100.41699981689452,2860.0,,US,US-NE,Brownlee,no,1NE0,,1NE0,,,,POINT (-100.4169998168945 42.31669998168945),https://www.openstreetmap.org/edit?editor=id#map=18/42.316700/-100.417000
8530,1NE1,small_airport,Paul Ridder Ranch Airport,41.28329849,-100.0500031,2780.0,,US,US-NE,Callaway,no,1NE1,,1NE1,,,,POINT (-100.05000309999998 41.28329849),https://www.openstreetmap.org/edit?editor=id#map=18/41.283298/-100.050003
347060,1NR7,small_airport,Boyd Field,36.274059,-78.46862,336.0,,US,US-NC,Henderson,no,1NR7,,1NR7,,,,POINT (-78.46862 36.274059),https://www.openstreetmap.org/edit?editor=id#map=18/36.274059/-78.468620
8558,1NY3,small_airport,Richland Airpark,43.5667,-76.032997,560.0,,US,US-NY,Richland,no,1NY3,,1NY3,,,,POINT (-76.032997 43.5667),https://www.openstreetmap.org/edit?editor=id#map=18/43.566700/-76.032997
8572,1OA6,small_airport,Frith Airport,39.33620071411133,-84.0457992553711,910.0,,US,US-OH,Morrow,no,1OA6,,1OA6,,,,POINT (-84.0457992553711 39.336200714111335),https://www.openstreetmap.org/edit?editor=id#map=18/39.336201/-84.045799
8576,1OH1,small_airport,S and S Field,40.30139923095703,-83.9760971069336,1057.0,,US,US-OH,Quincy,no,1OH1,,1OH1,,,,POINT (-83.97609710693358 40.30139923095703),https://www.openstreetmap.org/edit?editor=id#map=18/40.301399/-83.976097
8577,1OH2,small_airport,Dougherty Airport,41.24399948120117,-82.86630249023438,807.0,,US,US-OH,Bellevue,no,1OH2,,1OH2,,,,POINT (-82.86630249023439 41.24399948120117),https://www.openstreetmap.org/edit?editor=id#map=18/41.243999/-82.866302
8578,1OH3,small_airport,Mather Field,41.389198303222656,-82.76270294189453,640.0,,US,US-OH,Castalia,no,1OH3,,1OH3,,,,POINT (-82.76270294189452 41.38919830322265),https://www.openstreetmap.org/edit?editor=id#map=18/41.389198/-82.762703
8583,1OH8,small_airport,Lisbon Airfield,39.86669921875,-83.63330078125,1160.0,,US,US-OH,South Charleston,no,1OH8,,1OH8,,,,POINT (-83.63330078125 39.86669921875),https://www.openstreetmap.org/edit?editor=id#map=18/39.866699/-83.633301
8608,1OR6,small_airport,Clackamas Heights Airport,45.37139892578125,-122.5540008544922,545.0,,US,US-OR,Oregon City,no,1OR6,,1OR6,,,,POINT (-122.5540008544922 45.37139892578125),https://www.openstreetmap.org/edit?editor=id#map=18/45.371399/-122.554001
8616,1PA3,small_airport,Ridgeview Airport,40.45009994506836,-75.19960021972656,520.0,,US,US-PA,Kellers Church,no,1PA3,,1PA3,,,,POINT (-75.19960021972656 40.45009994506837),https://www.openstreetmap.org/edit?editor=id#map=18/40.450100/-75.199600
337584,1PA6,small_airport,Auer Field,40.360983,-76.74389,536.0,,US,US-PA,Linglestown,no,1PA6,,1PA6,,,,POINT (-76.74389 40.360983),https://www.openstreetmap.org/edit?editor=id#map=18/40.360983/-76.743890
8623,1PN0,small_airport,Bentley Airport,40.20140075683594,-75.71420288085938,690.0,,US,US-PA,Pottstown,no,1PN0,,1PN0,,,,POINT (-75.71420288085938 40.20140075683594),https://www.openstreetmap.org/edit?editor=id#map=18/40.201401/-75.714203
8624,1PN1,small_airport,Napodano Airport,41.33420181274414,-80.42060089111328,1060.0,,US,US-PA,Transfer,no,1PN1,,1PN1,,,,POINT (-80.42060089111328 41.33420181274415),https://www.openstreetmap.org/edit?editor=id#map=18/41.334202/-80.420601
8627,1PS0,small_airport,Ickes Airport,40.191898345947266,-78.564697265625,1320.0,,US,US-PA,Osterburg,no,1PS0,,1PS0,,,,POINT (-78.564697265625 40.19189834594726),https://www.openstreetmap.org/edit?editor=id#map=18/40.191898/-78.564697
354611,1SC1,small_airport,Lagniappe STOL Field,34.653745,-82.55498,875.0,,US,US-SC,Pelzer,no,1SC1,,1SC1,,,,POINT (-82.55498 34.653744999999994),https://www.openstreetmap.org/edit?editor=id#map=18/34.653745/-82.554980
8645,1SC2,small_airport,Gwinn Field,33.933799743652344,-80.79609680175781,390.0,,US,US-SC,Hopkins,no,1SC2,,1SC2,,,,POINT (-80.79609680175781 33.933799743652344),https://www.openstreetmap.org/edit?editor=id#map=18/33.933800/-80.796097
8654,1SD8,small_airport,Tribitt Airport,45.047698974609375,-96.55259704589844,1175.0,,US,US-SD,Albee,no,1SD8,,1SD8,,,,POINT (-96.55259704589844 45.04769897460938),https://www.openstreetmap.org/edit?editor=id#map=18/45.047699/-96.552597
8660,1TA2,small_airport,Vigo Park Airport,34.65010070800781,-101.5,3383.0,,US,US-TX,Tulia,no,1TA2,,1TA2,,,,POINT (-101.5 34.650100708007805),https://www.openstreetmap.org/edit?editor=id#map=18/34.650101/-101.500000
8675,1TE8,small_airport,Kahuna Bay Airport,33.548876,-96.55777,702.0,,US,US-TX,Sherman,no,1TE8,,1TE8,,,,POINT (-96.55777 33.54887599999999),https://www.openstreetmap.org/edit?editor=id#map=18/33.548876/-96.557770
8689,1TS2,small_airport,Bar 16 Airport,31.82430076599121,-96.77850341796876,547.0,,US,US-TX,Hubbard,no,1TS2,,1TS2,,,,POINT (-96.77850341796876 31.824300765991207),https://www.openstreetmap.org/edit?editor=id#map=18/31.824301/-96.778503
8703,1TX7,small_airport,Killion Ranch Airport,32.80569839477539,-100.18399810791016,1845.0,,US,US-TX,Hamlin,no,1TX7,,1TX7,,,,POINT (-100.18399810791016 32.80569839477538),https://www.openstreetmap.org/edit?editor=id#map=18/32.805698/-100.183998
8720,1VA8,small_airport,Hazelswart Airport,36.862249,-78.410025,485.0,,US,US-VA,Chase City,no,1VA8,,1VA8,,,,POINT (-78.410025 36.862249),https://www.openstreetmap.org/edit?editor=id#map=18/36.862249/-78.410025
8788,20II,small_airport,Kay Air Airport,39.58720016479492,-86.27559661865234,651.0,,US,US-IN,Mooresville,no,20II,,20II,,,,POINT (-86.27559661865234 39.58720016479492),https://www.openstreetmap.org/edit?editor=id#map=18/39.587200/-86.275597
8796,20LS,small_airport,Clark Field,30.623949,-91.032427,62.0,,US,US-LA,Zachary,no,LA15,,LA15,,,20LS,POINT (-91.03242699999998 30.623948999999996),https://www.openstreetmap.org/edit?editor=id#map=18/30.623949/-91.032427
322237,20MT,small_airport,Prevost Airport,47.69646,-104.60156,2348.0,,US,US-MT,Lambert,no,20MT,,20MT,,,,POINT (-104.60156 47.696459999999995),https://www.openstreetmap.org/edit?editor=id#map=18/47.696460/-104.601560
8800,20NC,small_airport,Mountain View Airport,35.59239959716797,-81.05590057373047,1020.0,,US,US-NC,Sherrills Ford,no,20NC,,20NC,,,,POINT (-81.05590057373045 35.59239959716797),https://www.openstreetmap.org/edit?editor=id#map=18/35.592400/-81.055901
8801,20ND,small_airport,Crooked Lake Airstrip,47.653900146484375,-100.89099884033205,1900.0,,US,US-ND,Turtle Lake,no,20ND,,20ND,,,,POINT (-100.89099884033203 47.653900146484375),https://www.openstreetmap.org/edit?editor=id#map=18/47.653900/-100.890999
8804,20NY,small_airport,Stafford Airport,43.005303,-78.039572,891.0,,US,US-NY,Le Roy,no,20NY,,20NY,,,,POINT (-78.03957199999999 43.005303),https://www.openstreetmap.org/edit?editor=id#map=18/43.005303/-78.039572
8808,20OR,small_airport,Warner's Airport,45.29725,-122.47517,325.0,,US,US-OR,Redland,no,20OR,,20OR,,,,POINT (-122.47517 45.29725),https://www.openstreetmap.org/edit?editor=id#map=18/45.297250/-122.475170
8812,20TE,small_airport,Reece Ranch Airport,32.19599914550781,-97.08920288085938,880.0,,US,US-TX,Itasca,no,20TE,,20TE,,,,POINT (-97.08920288085938 32.19599914550781),https://www.openstreetmap.org/edit?editor=id#map=18/32.195999/-97.089203
8819,20WI,small_airport,Harju Airport,44.02140045166016,-89.07929992675781,800.0,,US,US-WI,Redgranite,no,20WI,,20WI,,,,POINT (-89.07929992675781 44.021400451660156),https://www.openstreetmap.org/edit?editor=id#map=18/44.021400/-89.079300
8832,21GE,small_airport,Deer Crossing Airport,34.54970169067383,-83.82219696044922,1390.0,,US,US-GA,Cleveland,no,21GE,,21GE,,,,POINT (-83.8221969604492 34.54970169067383),https://www.openstreetmap.org/edit?editor=id#map=18/34.549702/-83.822197
8833,21H,seaplane_base,Skyline Seaplane Base,48.489077,-122.676773,,,US,US-WA,Anacortes,no,,,21H,,,,POINT (-122.676773 48.489076999999995),https://www.openstreetmap.org/edit?editor=id#map=18/48.489077/-122.676773
340872,21MS,small_airport,Blythe Bayou Farms Airport,34.912015,-90.213564,209.0,,US,US-MS,Lake Cormorant,no,21MS,,21MS,,,,POINT (-90.21356399999999 34.91201499999999),https://www.openstreetmap.org/edit?editor=id#map=18/34.912015/-90.213564
8857,21OI,small_airport,Clearwater Airpark,39.128101,-84.092697,905.0,,US,US-OH,Batavia,no,21OI,,21OI,,,,POINT (-84.09269699999999 39.128100999999994),https://www.openstreetmap.org/edit?editor=id#map=18/39.128101/-84.092697
8865,21TN,small_airport,Ray's Stall Airport,35.980911,-83.53371,1020.0,,US,US-TN,Dandridge,no,21TN,,21TN,,,,POINT (-83.53371 35.980911000000006),https://www.openstreetmap.org/edit?editor=id#map=18/35.980911/-83.533710
545832,21TT,small_airport,William Noble Higgins Memorial Aerodrome,30.96584,-96.167701,362.0,,US,US-TX,Normangee,no,21TT,,21TT,,,,POINT (-96.16770099999998 30.965840000000004),https://www.openstreetmap.org/edit?editor=id#map=18/30.965840/-96.167701
8877,22CA,seaplane_base,Commodore Center Seaplane Base,37.878893,-122.512697,,,US,US-CA,Mill Valley,no,22CA,,22CA,,,,POINT (-122.51269700000002 37.878893),https://www.openstreetmap.org/edit?editor=id#map=18/37.878893/-122.512697
8878,22CL,small_airport,Double Tree Farm Airport,39.29990005493164,-121.35900115966795,550.0,,US,US-CA,Marysville,no,22CL,,22CL,,,,POINT (-121.35900115966797 39.29990005493164),https://www.openstreetmap.org/edit?editor=id#map=18/39.299900/-121.359001
8895,22LS,small_airport,Couvillion Airport,30.39780044555664,-91.9738998413086,29.0,,US,US-LA,Arnaudville,no,22LS,,22LS,,,,POINT (-91.9738998413086 30.397800445556637),https://www.openstreetmap.org/edit?editor=id#map=18/30.397800/-91.973900
8900,22MO,small_airport,Belly Acres Ranch Airport,37.261199951171875,-92.3667984008789,1285.0,,US,US-MO,Mountain Grove,no,22MO,,22MO,,,,POINT (-92.3667984008789 37.26119995117187),https://www.openstreetmap.org/edit?editor=id#map=18/37.261200/-92.366798
8901,22MT,small_airport,Wounded Buck Ranch Airport,48.128342,-114.16975,2905.0,,US,US-MT,Kalispell,no,22MT,,22MT,,,,POINT (-114.16975000000001 48.128341999999996),https://www.openstreetmap.org/edit?editor=id#map=18/48.128342/-114.169750
8939,23FL,small_airport,Gyro Town Usa STOLport,27.68440055847168,-82.24420166015625,65.0,,US,US-FL,Wimauma,no,23FL,,23FL,,,,POINT (-82.24420166015624 27.68440055847168),https://www.openstreetmap.org/edit?editor=id#map=18/27.684401/-82.244202
8946,23KS,small_airport,Ney Ultralight Flightpark,39.070121,-94.948987,963.0,,US,US-KS,Bonner Springs,no,,,5KS9,,,"23KS, Ney Airport",POINT (-94.948987 39.07012099999999),https://www.openstreetmap.org/edit?editor=id#map=18/39.070121/-94.948987
354618,23MS,small_airport,Smith Farms Airport,30.677393,-88.551247,48.0,,US,US-MS,Moss Point,no,23MS,,23MS,,,,POINT (-88.551247 30.677393),https://www.openstreetmap.org/edit?editor=id#map=18/30.677393/-88.551247
8957,23MT,small_airport,Waterfall Airport,45.65719985961914,-111.04000091552734,4950.0,,US,US-MT,Bozeman,no,23MT,,23MT,,,,POINT (-111.04000091552733 45.65719985961913),https://www.openstreetmap.org/edit?editor=id#map=18/45.657200/-111.040001
8974,23TS,small_airport,Bertani Ranch Airport,29.422700881958008,-100.73899841308594,1110.0,,US,US-TX,Del Rio,no,23TS,,23TS,,,,POINT (-100.73899841308594 29.422700881958),https://www.openstreetmap.org/edit?editor=id#map=18/29.422701/-100.738998
8977,23VG,small_airport,Murdock's Holly Bu Airport,36.70970153808594,-78.4281005859375,465.0,,US,US-VA,Boydton,no,23VG,,23VG,,,,POINT (-78.4281005859375 36.70970153808593),https://www.openstreetmap.org/edit?editor=id#map=18/36.709702/-78.428101
8978,23VT,small_airport,North Windham Airport,43.22150039672851,-72.71289825439453,1750.0,,US,US-VT,Londonderry,no,23VT,,23VT,,,,POINT (-72.71289825439453 43.221500396728494),https://www.openstreetmap.org/edit?editor=id#map=18/43.221500/-72.712898
45918,23WV,small_airport,Bocamanu Airport,38.025833,-80.982778,2501.0,,US,US-WV,Fayetteville,no,23WV,,23WV,,,,POINT (-80.98277799999998 38.025833000000006),https://www.openstreetmap.org/edit?editor=id#map=18/38.025833/-80.982778
8984,24AK,small_airport,Toad Lake Strip,61.616313,-149.706183,100.0,,US,US-AK,Meadow Lakes,no,24AK,,24AK,,,,POINT (-149.706183 61.616313),https://www.openstreetmap.org/edit?editor=id#map=18/61.616313/-149.706183
511812,24ID,small_airport,Flying Z Ranch Airport,44.453611,-113.661944,6223.0,,US,US-ID,Challis,no,24ID,,24ID,,,,POINT (-113.66194399999999 44.453611),https://www.openstreetmap.org/edit?editor=id#map=18/44.453611/-113.661944
9000,24IN,small_airport,Kenstin Manor Airport,39.262813,-86.289003,658.0,,US,US-IN,Helmsburg,no,,,24IN,,,24IN,POINT (-86.28900299999998 39.262813),https://www.openstreetmap.org/edit?editor=id#map=18/39.262813/-86.289003
9004,24KY,small_airport,Williams Farm Airport,37.21670150756836,-87.43060302734375,415.0,,US,US-KY,Mortons Gap,no,24KY,,24KY,,,,POINT (-87.43060302734375 37.21670150756836),https://www.openstreetmap.org/edit?editor=id#map=18/37.216702/-87.430603
9023,24OI,small_airport,Reeds Airport,40.07780075073242,-83.89720153808594,1200.0,,US,US-OH,St Paris,no,24OI,,24OI,,,,POINT (-83.89720153808594 40.07780075073242),https://www.openstreetmap.org/edit?editor=id#map=18/40.077801/-83.897202
9026,24PA,small_airport,Kindelberger Landing Strip,40.69169998168945,-80.17780303955078,1140.0,,US,US-PA,Freedom,no,24PA,,24PA,,,,POINT (-80.17780303955078 40.69169998168945),https://www.openstreetmap.org/edit?editor=id#map=18/40.691700/-80.177803
9032,24TX,small_airport,Thurber Lake Airport,32.502202,-98.393744,1092.0,,US,US-TX,Mingus,no,24TX,,24TX,,,,POINT (-98.39374399999998 32.50220199999999),https://www.openstreetmap.org/edit?editor=id#map=18/32.502202/-98.393744
9044,25CL,small_airport,Van Dyke Strip,38.867218,-121.489429,48.0,,US,US-CA,Pleasant Grove,no,25CL,,25CL,,,66Q,POINT (-121.489429 38.867218),https://www.openstreetmap.org/edit?editor=id#map=18/38.867218/-121.489429
352233,25IA,small_airport,Virl B Deal Airfield,43.395073,-92.963744,1180.0,,US,US-IA,St. Ansgar,no,25IA,,25IA,,,,POINT (-92.96374399999999 43.395073000000004),https://www.openstreetmap.org/edit?editor=id#map=18/43.395073/-92.963744
9073,25OH,small_airport,Hammond Airport,40.91310119628906,-81.25980377197266,1050.0,,US,US-OH,Louisville,no,25OH,,25OH,,,,POINT (-81.25980377197264 40.91310119628906),https://www.openstreetmap.org/edit?editor=id#map=18/40.913101/-81.259804
9074,25OI,small_airport,Morrison Field,41.42259979248047,-80.87789916992188,865.0,,US,US-OH,Bristolville,no,25OI,,25OI,,,,POINT (-80.87789916992186 41.42259979248047),https://www.openstreetmap.org/edit?editor=id#map=18/41.422600/-80.877899
523563,26IA,small_airport,Midway View Farms Airport,42.373777,-95.765149,1355.0,,US,US-IA,Correctionville,no,26IA,,26IA,,,,POINT (-95.76514900000001 42.373777),https://www.openstreetmap.org/edit?editor=id#map=18/42.373777/-95.765149
45729,26OG,small_airport,Oakridge Ranch Airport,42.463021,-122.734744,1560.0,,US,US-OR,Eagle Point,no,26OG,,26OG,,,,POINT (-122.73474399999998 42.46302099999999),https://www.openstreetmap.org/edit?editor=id#map=18/42.463021/-122.734744
9131,26W,small_airport,Wolf Lake Airport,42.20970153808594,-84.23169708251953,980.0,,US,US-MI,Napoleon,no,26W,,26W,,,,POINT (-84.23169708251953 42.20970153808594),https://www.openstreetmap.org/edit?editor=id#map=18/42.209702/-84.231697
9133,26WI,small_airport,Kitty-Wompus Airport,45.699100494384766,-91.30349731445312,1336.0,,US,US-WI,Exeland,no,26WI,,26WI,,,,POINT (-91.30349731445311 45.699100494384766),https://www.openstreetmap.org/edit?editor=id#map=18/45.699100/-91.303497
516568,27ID,small_airport,Huddleston Airport,42.582954,-114.55003,3697.0,,US,US-ID,Filer,no,27ID,,27ID,,,,POINT (-114.55003 42.582954),https://www.openstreetmap.org/edit?editor=id#map=18/42.582954/-114.550030
512951,27ME,seaplane_base,Pleasant Pond Seaplane Base,44.133339,-69.889617,131.0,,US,US-ME,Richmond,no,27ME,,27ME,,,,POINT (-69.889617 44.133339),https://www.openstreetmap.org/edit?editor=id#map=18/44.133339/-69.889617
350181,27MS,small_airport,Jolly Field,32.758235,-89.408718,386.0,,US,US-MS,Carthage,no,27MS,,27MS,,,,POINT (-89.40871799999998 32.758235),https://www.openstreetmap.org/edit?editor=id#map=18/32.758235/-89.408718
516569,28ID,small_airport,D Bar C Airport,45.513484,-115.440288,5629.0,,US,US-ID,Dixie,no,28ID,,28ID,,,,POINT (-115.440288 45.51348399999999),https://www.openstreetmap.org/edit?editor=id#map=18/45.513484/-115.440288
9218,28OK,small_airport,Pellar Farm Airport,35.511128,-98.036757,1400.0,,US,US-OK,Union City,no,28OK,,28OK,,,,POINT (-98.036757 35.511128),https://www.openstreetmap.org/edit?editor=id#map=18/35.511128/-98.036757
9219,28OR,small_airport,Parrett Mountain Airport,45.479000091552734,-122.23400115966795,790.0,,US,US-OR,Newberg,no,28OR,,28OR,,,,POINT (-122.23400115966797 45.479000091552734),https://www.openstreetmap.org/edit?editor=id#map=18/45.479000/-122.234001
9223,28TA,small_airport,Duval County Ranch Co Airport,27.83359909,-98.71700287,665.0,,US,US-TX,Freer,no,28TA,,28TA,,,,POINT (-98.71700287 27.833599089999996),https://www.openstreetmap.org/edit?editor=id#map=18/27.833599/-98.717003
346566,28TT,small_airport,Left Wing Low Airport,31.995861,-97.002169,596.0,,US,US-TX,Bynum,no,28TT,,28TT,,,,POINT (-97.00216899999998 31.995861),https://www.openstreetmap.org/edit?editor=id#map=18/31.995861/-97.002169
9231,28WI,small_airport,Rutherford Airport,44.60409927368164,-92.04660034179688,790.0,,US,US-WI,Arkansaw,no,28WI,,28WI,,,,POINT (-92.04660034179686 44.60409927368163),https://www.openstreetmap.org/edit?editor=id#map=18/44.604099/-92.046600
9232,28XS,small_airport,Flying G Airport,32.645999908447266,-96.32530212402344,470.0,,US,US-TX,Kaufman,no,28XS,,28XS,,,,POINT (-96.32530212402344 32.645999908447266),https://www.openstreetmap.org/edit?editor=id#map=18/32.646000/-96.325302
9233,29A,seaplane_base,Island Lake Seaplane Base,61.6288986206,-149.617996216,370.0,,US,US-AK,Wasilla,no,29A,,29A,,,,POINT (-149.617996216 61.6288986206),https://www.openstreetmap.org/edit?editor=id#map=18/61.628899/-149.617996
9234,29AK,small_airport,Remington Field,64.046814,-145.432667,1250.0,,US,US-AK,Delta Junction,no,29AK,,29AK,,,,POINT (-145.43266700000004 64.04681399999998),https://www.openstreetmap.org/edit?editor=id#map=18/64.046814/-145.432667
9240,29CN,small_airport,Miller's Mother Lode Airport,38.845032,-120.831075,2400.0,,US,US-CA,Georgetown,no,29CN,,29CN,,,,POINT (-120.831075 38.845032),https://www.openstreetmap.org/edit?editor=id#map=18/38.845032/-120.831075
9243,29FA,seaplane_base,Caloosa Downtown Seaplane Base,26.635000228881836,-81.875,2.0,,US,US-FL,Fort Myers,no,29FA,,29FA,,,,POINT (-81.87499999999999 26.635000228881836),https://www.openstreetmap.org/edit?editor=id#map=18/26.635000/-81.875000
529886,29ID,small_airport,Patterson Field,43.887222,-116.654722,2297.0,,US,US-ID,Emmett,no,29ID,,29ID,,,,POINT (-116.65472200000002 43.887221999999994),https://www.openstreetmap.org/edit?editor=id#map=18/43.887222/-116.654722
9258,29MI,small_airport,Sawyer Field,42.599998474121094,-84.44999694824219,910.0,,US,US-MI,Mason,no,29MI,,29MI,,,,POINT (-84.44999694824219 42.599998474121094),https://www.openstreetmap.org/edit?editor=id#map=18/42.599998/-84.449997
9267,29OH,small_airport,Fox Airport,40.6864013671875,-81.30259704589844,1020.0,,US,US-OH,Magnolia,no,29OH,,29OH,,,,POINT (-81.30259704589842 40.68640136718749),https://www.openstreetmap.org/edit?editor=id#map=18/40.686401/-81.302597
9294,2AK6,small_airport,Hog River Airport,66.176133,-155.684816,534.0,,US,US-AK,Hogatza,no,2AK6,HGZ,2AK6,,,,POINT (-155.684816 66.176133),https://www.openstreetmap.org/edit?editor=id#map=18/66.176133/-155.684816
9312,2AR5,small_airport,Ashmore Field,36.38309860229492,-94.2938995361328,1362.0,,US,US-AR,Centerton,no,2AR5,,2AR5,,,,POINT (-94.2938995361328 36.38309860229492),https://www.openstreetmap.org/edit?editor=id#map=18/36.383099/-94.293900
9314,2AR7,small_airport,Head Airfield,33.849098205566406,-93.4791030883789,441.0,,US,US-AR,Prescott,no,2AR7,,2AR7,,,,POINT (-93.47910308837889 33.849098205566406),https://www.openstreetmap.org/edit?editor=id#map=18/33.849098/-93.479103
45333,2CD4,small_airport,West Divide Airport,39.430788,-107.623111,6352.0,,US,US-CO,Silt,no,2CD4,,2CD4,,,,POINT (-107.623111 39.43078799999999),https://www.openstreetmap.org/edit?editor=id#map=18/39.430788/-107.623111
9360,2CO5,small_airport,Edenway Airport,38.347198486328125,-104.63200378417967,4970.0,,US,US-CO,Pueblo,no,2CO5,,2CO5,,,,POINT (-104.63200378417966 38.34719848632813),https://www.openstreetmap.org/edit?editor=id#map=18/38.347198/-104.632004
9379,2FA4,small_airport,Southern Ranch Airport,26.379499435424805,-80.94560241699219,18.0,,US,US-FL,Clewiston,no,2FA4,,2FA4,,,,POINT (-80.94560241699219 26.379499435424805),https://www.openstreetmap.org/edit?editor=id#map=18/26.379499/-80.945602
45354,2FA9,small_airport,Mount Olive Farm Airport,30.336389,-83.783611,73.0,,US,US-FL,Lamont,no,2FA9,,2FA9,,,,POINT (-83.783611 30.336388999999997),https://www.openstreetmap.org/edit?editor=id#map=18/30.336389/-83.783611
9446,2II6,small_airport,Baird-Wolford Airport,40.264464,-86.102536,880.0,,US,US-IN,Tipton,no,2II6,,2II6,,,,POINT (-86.102536 40.26446399999999),https://www.openstreetmap.org/edit?editor=id#map=18/40.264464/-86.102536
9464,2IN5,small_airport,Midkiff Airport,40.01520156860352,-85.472900390625,1038.0,,US,US-IN,Sulphur Springs,no,2IN5,,2IN5,,,,POINT (-85.472900390625 40.015201568603516),https://www.openstreetmap.org/edit?editor=id#map=18/40.015202/-85.472900
9484,2K2,small_airport,Air Park South Airport,37.059502,-93.234299,1336.0,,US,US-MO,Ozark,no,2K2,,2K2,,https://en.wikipedia.org/wiki/Air_Park_South,,POINT (-93.23429899999998 37.059501999999995),https://www.openstreetmap.org/edit?editor=id#map=18/37.059502/-93.234299
9485,2K5,small_airport,Telida Airport,63.393901824951,-153.26899719238,650.0,,US,US-AK,Telida,no,2K5,TLF,2K5,,https://en.wikipedia.org/wiki/Telida_Airport,,POINT (-153.26899719238 63.39390182495101),https://www.openstreetmap.org/edit?editor=id#map=18/63.393902/-153.268997
9496,2KS9,small_airport,Starshire Farm Airport,38.900001525878906,-95.58360290527344,990.0,,US,US-KS,Topeka,no,2KS9,,2KS9,,,,POINT (-95.58360290527344 38.900001525878906),https://www.openstreetmap.org/edit?editor=id#map=18/38.900002/-95.583603
349875,2KT4,small_airport,Eubank Field,36.796953,-85.966902,850.0,,US,US-KY,Fountain Run,no,2KT4,,2KT4,,,,POINT (-85.966902 36.796952999999995),https://www.openstreetmap.org/edit?editor=id#map=18/36.796953/-85.966902
9511,2LA3,seaplane_base,Exxon Intracoastal City Terminal Seaplane Base,29.82489967346191,-92.13289642333984,8.0,,US,US-LA,Intracoastal City,no,2LA3,,2LA3,,,,POINT (-92.13289642333984 29.82489967346191),https://www.openstreetmap.org/edit?editor=id#map=18/29.824900/-92.132896
45441,2LS3,small_airport,Majors Airpark,30.626092,-91.768584,34.0,,US,US-LA,Melville,no,2LS3,,2LS3,,,,POINT (-91.76858399999999 30.626091999999996),https://www.openstreetmap.org/edit?editor=id#map=18/30.626092/-91.768584
346693,2MN4,small_airport,Cornfield Canyon Airport,43.59845,-94.2529,1132.0,,US,US-MN,Blue Earth,no,2MN4,,2MN4,,,,POINT (-94.2529 43.59845),https://www.openstreetmap.org/edit?editor=id#map=18/43.598450/-94.252900
9582,2MS7,small_airport,Puff Airpark,32.05849838256836,-89.81670379638672,400.0,,US,US-MS,Puckett,no,2MS7,,2MS7,,,,POINT (-89.81670379638672 32.05849838256836),https://www.openstreetmap.org/edit?editor=id#map=18/32.058498/-89.816704
9616,2ND7,small_airport,Johnson Airport,48.75170135498047,-100.81400299072266,1460.0,,US,US-ND,Newburg,no,2ND7,,2ND7,,,,POINT (-100.81400299072264 48.75170135498047),https://www.openstreetmap.org/edit?editor=id#map=18/48.751701/-100.814003
9617,2ND9,small_airport,Brekhus Field,48.81669998168945,-101.91699981689452,1850.0,,US,US-ND,Norma,no,2ND9,,2ND9,,,,POINT (-101.91699981689452 48.81669998168945),https://www.openstreetmap.org/edit?editor=id#map=18/48.816700/-101.917000
9629,2NJ1,small_airport,Jugtown Mountain Airport,40.633399963378906,-75.06629943847656,600.0,,US,US-NJ,Pattenburg,no,2NJ1,,2NJ1,,,,POINT (-75.06629943847658 40.633399963378906),https://www.openstreetmap.org/edit?editor=id#map=18/40.633400/-75.066299
9645,2NK7,small_airport,Walton Airport,42.157901763916016,-75.14790344238281,1200.0,,US,US-NY,Walton,no,2NK7,,2NK7,,,,POINT (-75.14790344238281 42.157901763916016),https://www.openstreetmap.org/edit?editor=id#map=18/42.157902/-75.147903
9663,2OA5,small_airport,Fl-Airfield,40.182498931884766,-83.35089874267578,980.0,,US,US-OH,Marysville,no,2OA5,,2OA5,,,,POINT (-83.35089874267577 40.18249893188476),https://www.openstreetmap.org/edit?editor=id#map=18/40.182499/-83.350899
9670,2OH4,small_airport,Cedar Creek Airport,40.6245002746582,-82.635498046875,1220.0,,US,US-OH,Shauck,no,2OH4,,2OH4,,,,POINT (-82.635498046875 40.62450027465821),https://www.openstreetmap.org/edit?editor=id#map=18/40.624500/-82.635498
9672,2OH6,small_airport,Smith Field Airport,40.012001,-84.281303,935.0,,US,US-OH,Troy,no,2OH6,,2OH6,,,Leavelle Airstrip,POINT (-84.281303 40.01200099999999),https://www.openstreetmap.org/edit?editor=id#map=18/40.012001/-84.281303
9673,2OH7,small_airport,Jbr Airport,38.911201477051,-84.026000976562,945.0,,US,US-OH,Hamersville,no,,,2OH7,,,2OH7,POINT (-84.02600097656199 38.911201477050994),https://www.openstreetmap.org/edit?editor=id#map=18/38.911201/-84.026001
9674,2OH8,small_airport,Port-O-John Airport,39.7952995300293,-83.22319793701172,925.0,,US,US-OH,Derby,no,2OH8,,2OH8,,,,POINT (-83.2231979370117 39.79529953002929),https://www.openstreetmap.org/edit?editor=id#map=18/39.795300/-83.223198
9676,2OI2,small_airport,Air Jordan Airport,39.56110000610352,-84.0519027709961,920.0,,US,US-OH,Waynesville,no,2OI2,,2OI2,,,,POINT (-84.0519027709961 39.56110000610353),https://www.openstreetmap.org/edit?editor=id#map=18/39.561100/-84.051903
9678,2OI4,small_airport,Aero Lake Farm Airport,41.0452995300293,-81.9365005493164,1195.0,,US,US-OH,Westfield Center,no,2OI4,,2OI4,,,,POINT (-81.93650054931639 41.0452995300293),https://www.openstreetmap.org/edit?editor=id#map=18/41.045300/-81.936501
9689,2OK4,small_airport,Ragwing Acres Airport,35.81679916381836,-96.05860137939452,780.0,,US,US-OK,Mounds,no,2OK4,,2OK4,,,,POINT (-96.05860137939452 35.81679916381836),https://www.openstreetmap.org/edit?editor=id#map=18/35.816799/-96.058601
9690,2OK5,small_airport,Ferrell Ranch Airport,34.92900085449219,-98.73979949951172,1575.0,,US,US-OK,Mountain View,no,2OK5,,2OK5,,,,POINT (-98.7397994995117 34.92900085449218),https://www.openstreetmap.org/edit?editor=id#map=18/34.929001/-98.739799
9742,2S2,small_airport,Beaver Marsh State Airport,43.12900161743164,-121.81800079345705,4638.0,,US,US-OR,Beaver Marsh,no,2S2,,2S2,,https://en.wikipedia.org/wiki/Beaver_Marsh_Airport,,POINT (-121.81800079345703 43.12900161743163),https://www.openstreetmap.org/edit?editor=id#map=18/43.129002/-121.818001
9780,2TE4,small_airport,Frels Airport,29.17919921875,-96.32270050048828,100.0,,US,US-TX,El Campo,no,2TE4,,2TE4,,,,POINT (-96.32270050048827 29.17919921875),https://www.openstreetmap.org/edit?editor=id#map=18/29.179199/-96.322701
9794,2TN8,small_airport,Soggy Bottom Airport,36.018001556396484,-85.93599700927734,580.0,,US,US-TN,Dowelltown,no,2TN8,,2TN8,,,,POINT (-85.93599700927734 36.018001556396484),https://www.openstreetmap.org/edit?editor=id#map=18/36.018002/-85.935997
9796,2TS0,small_airport,Myska Field,33.154709,-97.138817,595.0,,US,US-TX,Denton,no,2TS0,,2TS0,,,,POINT (-97.138817 33.154709),https://www.openstreetmap.org/edit?editor=id#map=18/33.154709/-97.138817
9814,2TX8,small_airport,Eagle's Landing Airport,33.305444,-97.378915,930.0,,US,US-TX,Krum,no,2TX8,,2TX8,,,,POINT (-97.378915 33.305443999999994),https://www.openstreetmap.org/edit?editor=id#map=18/33.305444/-97.378915
9821,2UT2,small_airport,High Meadow Ranch Airport,37.52080154418945,-112.64199829101562,8280.0,,US,US-UT,Duck Creek Village,no,2UT2,,2UT2,,,,POINT (-112.64199829101561 37.520801544189446),https://www.openstreetmap.org/edit?editor=id#map=18/37.520802/-112.641998
9826,2VA1,small_airport,Jett Airpark,37.895999908447266,-76.3552017211914,90.0,,US,US-VA,Edwardsville,no,2VA1,,2VA1,,,,POINT (-76.3552017211914 37.89599990844727),https://www.openstreetmap.org/edit?editor=id#map=18/37.896000/-76.355202
9830,2VA5,small_airport,Rosegill Farm Airstrip,37.630699,-76.565002,32.0,,US,US-VA,Saluda,no,2VA5,,2VA5,,,,POINT (-76.56500199999999 37.630699),https://www.openstreetmap.org/edit?editor=id#map=18/37.630699/-76.565002
9833,2VA8,small_airport,Brandywyne Farms Airport,36.686936,-76.823369,66.0,,US,US-VA,Holland,no,2VA8,,2VA8,,,,POINT (-76.823369 36.686936),https://www.openstreetmap.org/edit?editor=id#map=18/36.686936/-76.823369
325325,2VI2,seaplane_base,Redoubt View Seaplane Base,60.419038,-152.354894,385.0,,US,US-AK,Kenai,no,2VI2,,2VI2,,,,POINT (-152.35489399999997 60.41903799999999),https://www.openstreetmap.org/edit?editor=id#map=18/60.419038/-152.354894
9868,2WN5,small_airport,Murmuring Springs Airport,44.00640106201172,-90.01920318603516,910.0,,US,US-WI,Necedah,no,2WN5,,2WN5,,,,POINT (-90.01920318603516 44.00640106201172),https://www.openstreetmap.org/edit?editor=id#map=18/44.006401/-90.019203
45930,2WS2,small_airport,Connor's Lake Landing,45.91275,-92.293239,1000.0,,US,US-WI,Webster,no,2WS2,,2WS2,,,,POINT (-92.293239 45.912749999999996),https://www.openstreetmap.org/edit?editor=id#map=18/45.912750/-92.293239
9879,2X2,seaplane_base,Willow Seaplane Base,61.74399948120117,-150.0590057373047,200.0,,US,US-AK,Willow,no,2X2,,2X2,,,,POINT (-150.0590057373047 61.743999481201165),https://www.openstreetmap.org/edit?editor=id#map=18/61.743999/-150.059006
9893,2XS5,small_airport,Cross Triangle Ranch Airport,30.0104999542,-98.4253005981,1420.0,,US,US-TX,Twin Sisters,no,2XS5,,2XS5,,,,POINT (-98.4253005981 30.010499954200004),https://www.openstreetmap.org/edit?editor=id#map=18/30.010500/-98.425301
9903,2Z2,small_airport,Eureka Creek Airport,65.1759033203125,-150.2209930419922,700.0,,US,US-AK,Eureka Creek,no,2Z2,,2Z2,,,,POINT (-150.22099304199216 65.1759033203125),https://www.openstreetmap.org/edit?editor=id#map=18/65.175903/-150.220993
512957,30GE,small_airport,Papas Place Airport,34.194029,-83.194601,720.0,,US,US-GA,Danielsville,no,30GE,,30GE,,,,POINT (-83.194601 34.194029),https://www.openstreetmap.org/edit?editor=id#map=18/34.194029/-83.194601
9925,30LL,small_airport,Williams Airpark,39.75419998168945,-90.36540222167967,614.0,,US,US-IL,Chapin,no,30LL,,30LL,,,,POINT (-90.36540222167966 39.75419998168945),https://www.openstreetmap.org/edit?editor=id#map=18/39.754200/-90.365402
9936,30OK,small_airport,Lobo Field,34.908091,-96.24362,792.0,,US,US-OK,Calvin,no,OL41,,OL41,,,30OK,POINT (-96.24362 34.908091),https://www.openstreetmap.org/edit?editor=id#map=18/34.908091/-96.243620
529891,31GE,small_airport,Tailwind Ranch Airport,32.81924,-83.407809,392.0,,US,US-GA,Gordon,no,31GE,,31GE,,,,POINT (-83.407809 32.81924),https://www.openstreetmap.org/edit?editor=id#map=18/32.819240/-83.407809
541175,31ID,small_airport,Thunder Ridge Airport,48.391667,-116.36625,2632.0,,US,US-ID,Sandpioint,no,31ID,,31ID,,,,POINT (-116.36625 48.39166699999999),https://www.openstreetmap.org/edit?editor=id#map=18/48.391667/-116.366250
9974,31NE,small_airport,Grimm Farm Airport,42.755001068115234,-97.7051010131836,1670.0,,US,US-NE,Crofton,no,31NE,,31NE,,,,POINT (-97.7051010131836 42.755001068115234),https://www.openstreetmap.org/edit?editor=id#map=18/42.755001/-97.705101
9983,31TS,small_airport,Flyers Field,33.190399169921875,-96.18910217285156,640.0,,US,US-TX,Greenville,no,31TS,,31TS,,,,POINT (-96.18910217285155 33.190399169921875),https://www.openstreetmap.org/edit?editor=id#map=18/33.190399/-96.189102
545848,32ID,small_airport,Chimney Creek Airport,43.366217,-114.99109,5152.0,,US,US-ID,Fairfield,no,32ID,,32ID,,,,POINT (-114.99109000000001 43.366217000000006),https://www.openstreetmap.org/edit?editor=id#map=18/43.366217/-114.991090
516573,32MT,small_airport,Vbob Airport,45.460325,-112.435125,5025.0,,US,US-MT,Twin Bridges,no,32MT,,32MT,,,,POINT (-112.43512499999999 45.46032499999999),https://www.openstreetmap.org/edit?editor=id#map=18/45.460325/-112.435125
10019,32OH,small_airport,Rall Field,40.760057,-82.41833,1330.0,,US,US-OH,Mansfield,no,32OH,,32OH,,,,POINT (-82.41833 40.760057),https://www.openstreetmap.org/edit?editor=id#map=18/40.760057/-82.418330
10063,33OH,small_airport,Sunset Strip,40.185298919677734,-83.17359924316406,945.0,,US,US-OH,Jerome,no,33OH,,33OH,,,,POINT (-83.17359924316406 40.18529891967773),https://www.openstreetmap.org/edit?editor=id#map=18/40.185299/-83.173599
10064,33OI,small_airport,Soaring Horse Airport,41.082802,-82.043198,950.0,,US,US-OH,Spencer,no,33OI,,33OI,,,,POINT (-82.043198 41.082801999999994),https://www.openstreetmap.org/edit?editor=id#map=18/41.082802/-82.043198
344831,33VT,small_airport,Sky View Acres Airport,44.118333,-72.565833,1350.0,,US,US-VT,Williamstown,no,33VT,,33VT,,,,POINT (-72.565833 44.118333),https://www.openstreetmap.org/edit?editor=id#map=18/44.118333/-72.565833
505957,33WY,small_airport,Skidmo Airport,43.045926,-110.991236,6020.0,,US,US-WY,Etna,no,33WY,,33WY,,,,POINT (-110.991236 43.045926),https://www.openstreetmap.org/edit?editor=id#map=18/43.045926/-110.991236
10085,34FA,seaplane_base,Gezik Seaplane Base,28.25189971923828,-80.66889953613281,,,US,US-FL,Rockledge,no,34FA,,34FA,,,,POINT (-80.6688995361328 28.251899719238274),https://www.openstreetmap.org/edit?editor=id#map=18/28.251900/-80.668900
10090,34II,small_airport,Burk Personal Use Airport,40.050816,-85.602318,930.0,,US,US-IN,Anderson,no,34II,,34II,,,,POINT (-85.60231799999998 40.05081599999999),https://www.openstreetmap.org/edit?editor=id#map=18/40.050816/-85.602318
10101,34MN,seaplane_base,Peil/Juliar Seaplane Base,44.959685,-93.649399,627.0,,US,US-MN,Mound,no,,,,,,34MN,POINT (-93.64939899999999 44.959685),https://www.openstreetmap.org/edit?editor=id#map=18/44.959685/-93.649399
45774,34PN,small_airport,Fox Field,40.485556,-77.220556,730.0,,US,US-PA,Newport,no,34PN,,34PN,,,,POINT (-77.22055599999999 40.485556),https://www.openstreetmap.org/edit?editor=id#map=18/40.485556/-77.220556
10116,34TE,small_airport,Bee Creek Airport,32.23210144042969,-97.00859832763672,760.0,,US,US-TX,Maypearl,no,34TE,,34TE,,,,POINT (-97.00859832763672 32.23210144042969),https://www.openstreetmap.org/edit?editor=id#map=18/32.232101/-97.008598
10123,34XS,small_airport,Flying Hare Field Airport,30.391944,-95.538611,225.0,,US,US-TX,Conroe,no,34XS,,34XS,,,,POINT (-95.53861099999999 30.391943999999995),https://www.openstreetmap.org/edit?editor=id#map=18/30.391944/-95.538611
10143,35L,small_airport,Carriage Lane Airport,42.464500427246094,-84.03500366210938,920.0,,US,US-MI,Gregory,no,35L,,35L,,,,POINT (-84.03500366210936 42.464500427246094),https://www.openstreetmap.org/edit?editor=id#map=18/42.464500/-84.035004
10144,35LA,small_airport,Ms Pats Airport,29.97450065612793,-92.17610168457033,10.0,,US,US-LA,Abbeville,no,35LA,,35LA,,,,POINT (-92.17610168457033 29.97450065612793),https://www.openstreetmap.org/edit?editor=id#map=18/29.974501/-92.176102
10150,35MI,small_airport,Law Field,42.6338996887207,-84.98580169677734,920.0,,US,US-MI,Vermontville,no,35MI,,35MI,,,,POINT (-84.98580169677734 42.6338996887207),https://www.openstreetmap.org/edit?editor=id#map=18/42.633900/-84.985802
350298,35NK,small_airport,Tiger Paw Aerodrome,43.367099,-78.414026,295.0,,US,US-NY,Lyndonville,no,35NK,,35NK,,,,POINT (-78.414026 43.367098999999996),https://www.openstreetmap.org/edit?editor=id#map=18/43.367099/-78.414026
10170,35WI,small_airport,Barker Strip,42.745601654052734,-88.4375991821289,1000.0,,US,US-WI,East Troy,no,35WI,,35WI,,,,POINT (-88.43759918212889 42.74560165405272),https://www.openstreetmap.org/edit?editor=id#map=18/42.745602/-88.437599
353029,35XA,small_airport,Rcade Ranch Airport,30.834058,-94.941683,267.0,,US,US-TX,Livingston,no,35XA,,35XA,,,,POINT (-94.941683 30.834058),https://www.openstreetmap.org/edit?editor=id#map=18/30.834058/-94.941683
10173,36AR,small_airport,David Stanley Memorial Airport,35.20640182495117,-91.31890106201172,200.0,,US,US-AR,Gregory,no,36AR,,36AR,,,,POINT (-91.3189010620117 35.206401824951165),https://www.openstreetmap.org/edit?editor=id#map=18/35.206402/-91.318901
10178,36CO,small_airport,Fat Chance Airport,39.10609817504883,-104.54399871826172,7100.0,,US,US-CO,Peyton,no,36CO,,36CO,,,,POINT (-104.5439987182617 39.10609817504883),https://www.openstreetmap.org/edit?editor=id#map=18/39.106098/-104.543999
10183,36H,seaplane_base,Squaw Harbor Seaplane Base,55.2332992554,-160.552001953,0.0,,US,US-AK,Squaw Harbor,no,36H,,36H,,,,POINT (-160.55200195299997 55.23329925539999),https://www.openstreetmap.org/edit?editor=id#map=18/55.233299/-160.552002
10202,36OI,small_airport,Verhoff Airport,41.07310104370117,-84.21269989013672,728.0,,US,US-OH,Continental,no,36OI,,36OI,,,,POINT (-84.21269989013672 41.073101043701165),https://www.openstreetmap.org/edit?editor=id#map=18/41.073101/-84.212700
45870,36VT,seaplane_base,North Hero Passage Seaplane Base,44.854722,-73.285556,102.0,,US,US-VT,North Hero,no,36VT,,36VT,,,,POINT (-73.285556 44.854721999999995),https://www.openstreetmap.org/edit?editor=id#map=18/44.854722/-73.285556
10215,36XS,small_airport,Mill Iron Ranch South Airport,34.897,-100.11789,2097.0,,US,US-TX,Wellington,no,36XS,,36XS,,,,POINT (-100.11789 34.89699999999999),https://www.openstreetmap.org/edit?editor=id#map=18/34.897000/-100.117890
10225,37GA,small_airport,Blue Bird Field,34.90039825439453,-84.77850341796875,800.0,,US,US-GA,Crandall,no,37GA,,37GA,,,,POINT (-84.77850341796874 34.900398254394524),https://www.openstreetmap.org/edit?editor=id#map=18/34.900398/-84.778503
10227,37II,small_airport,Winn Field,41.17559814453125,-86.37359619140625,808.0,,US,US-IN,Culver,no,37II,,37II,,,,POINT (-86.37359619140625 41.17559814453124),https://www.openstreetmap.org/edit?editor=id#map=18/41.175598/-86.373596
10239,37MO,small_airport,Mayes Homestead Airport,39.57500076293945,-94.18360137939452,1000.0,,US,US-MO,Polo,no,37MO,,37MO,,,,POINT (-94.1836013793945 39.575000762939446),https://www.openstreetmap.org/edit?editor=id#map=18/39.575001/-94.183601
340925,37MS,small_airport,P2 Landing Airport,32.389828,-90.350779,246.0,,US,US-MS,Clinton,no,37MS,,37MS,,,,POINT (-90.350779 32.38982799999999),https://www.openstreetmap.org/edit?editor=id#map=18/32.389828/-90.350779
10250,37PA,small_airport,Roadcap Airport,40.78839874267578,-77.1061019897461,731.0,,US,US-PA,Middleburg,no,37PA,,37PA,,,,POINT (-77.1061019897461 40.78839874267578),https://www.openstreetmap.org/edit?editor=id#map=18/40.788399/-77.106102
10258,37VT,small_airport,Brisson Airport,43.86859893798828,-73.31809997558594,320.0,,US,US-VT,Shoreham,no,37VT,,37VT,,,,POINT (-73.31809997558594 43.86859893798829),https://www.openstreetmap.org/edit?editor=id#map=18/43.868599/-73.318100
10262,37XS,small_airport,Lake Whitney Country Club Airport,31.99155,-97.33896,627.0,,US,US-TX,Whitney,no,37XS,,37XS,,,,POINT (-97.33895999999999 31.991549999999986),https://www.openstreetmap.org/edit?editor=id#map=18/31.991550/-97.338960
508193,38AL,small_airport,Sawtooth Plantation Airport,32.168333,-85.40375,350.0,,US,US-AL,Hurtsboro,no,38AL,,38AL,,,,POINT (-85.40375 32.168333),https://www.openstreetmap.org/edit?editor=id#map=18/32.168333/-85.403750
10272,38FA,small_airport,Blue Springs Airport,30.48349952697754,-83.2499008178711,95.0,,US,US-FL,Madison,no,38FA,,38FA,,,,POINT (-83.2499008178711 30.483499526977543),https://www.openstreetmap.org/edit?editor=id#map=18/30.483500/-83.249901
45949,38ID,small_airport,Sky Ranch North Airport,43.5094444444,-116.667916667,2750.0,,US,US-ID,Nampa,no,38ID,,38ID,,,,POINT (-116.667916667 43.50944444440001),https://www.openstreetmap.org/edit?editor=id#map=18/43.509444/-116.667917
10294,38NY,small_airport,Greenlawn Farm Airport,42.54869842529297,-76.95800018310547,1010.0,,US,US-NY,Dundee,no,38NY,,38NY,,,,POINT (-76.95800018310548 42.54869842529297),https://www.openstreetmap.org/edit?editor=id#map=18/42.548698/-76.958000
10300,38PN,small_airport,Waisley Airport,42.000099182128906,-80.16649627685547,950.0,,US,US-PA,Mc Kean,no,38PN,,38PN,,,,POINT (-80.16649627685547 42.000099182128906),https://www.openstreetmap.org/edit?editor=id#map=18/42.000099/-80.166496
430406,38TT,small_airport,Olympus Airport,33.167819,-95.980372,613.0,,US,US-TX,Campbell,no,38TT,,38TT,,,,POINT (-95.980372 33.167819),https://www.openstreetmap.org/edit?editor=id#map=18/33.167819/-95.980372
506303,38VT,small_airport,Muddy Paw Airport,44.402083,-73.157917,372.0,,US,US-VT,Shelburne,no,38VT,,38VT,,,,POINT (-73.157917 44.402083),https://www.openstreetmap.org/edit?editor=id#map=18/44.402083/-73.157917
351618,38XA,small_airport,Walk-Air Airport,32.408055,-95.389444,474.0,,US,US-TX,Tyler,no,38XA,,38XA,,,,POINT (-95.389444 32.408055),https://www.openstreetmap.org/edit?editor=id#map=18/32.408055/-95.389444
529907,39MS,small_airport,Benton Farms Airport,32.406831,-90.382678,312.0,,US,US-MS,Clinton,no,39MS,,39MS,,,,POINT (-90.382678 32.406831),https://www.openstreetmap.org/edit?editor=id#map=18/32.406831/-90.382678
10341,39OH,small_airport,Crosswind Meadows Airport,40.81230163574219,-81.05509948730469,1160.0,,US,US-OH,Minerva,no,39OH,,39OH,,,,POINT (-81.05509948730469 40.81230163574219),https://www.openstreetmap.org/edit?editor=id#map=18/40.812302/-81.055099
10387,3AR7,small_airport,Taylor Field,36.26461,-94.16545,1315.0,,US,US-AR,Lowell,no,3AR7,,3AR7,,,,POINT (-94.16544999999999 36.26460999999999),https://www.openstreetmap.org/edit?editor=id#map=18/36.264610/-94.165450
346216,3CN7,small_airport,Alta Mesa Airpark,38.379143,-121.221728,125.0,,US,US-CA,Wilton,no,3CN7,,3CN7,,,,POINT (-121.221728 38.379143),https://www.openstreetmap.org/edit?editor=id#map=18/38.379143/-121.221728
10436,3E7,small_airport,Pronger Bros Ranch Airport,36.219501,-102.103996,3722.0,,US,US-TX,Stratford,no,3E7,,3E7,,https://en.wikipedia.org/wiki/Pronger_Bros._Ranch_Airport,,POINT (-102.10399599999998 36.21950100000001),https://www.openstreetmap.org/edit?editor=id#map=18/36.219501/-102.103996
299722,3FA8,seaplane_base,Searey Central SPB,28.766111,-81.74611,67.0,,US,US-FL,Tavares,no,3FA8,,3FA8,,,,POINT (-81.74610999999999 28.76611100000001),https://www.openstreetmap.org/edit?editor=id#map=18/28.766111/-81.746110
10449,3FD9,seaplane_base,Prairie Lake Private Residential Seaplane Base,28.6567,-81.353401,86.0,,US,US-FL,Altamonte Springs,no,3FD9,,3FD9,,,,POINT (-81.353401 28.656700000000004),https://www.openstreetmap.org/edit?editor=id#map=18/28.656700/-81.353401
10494,3IA9,small_airport,Rake Airport,43.475799560546875,-93.9072036743164,1180.0,,US,US-IA,Rake,no,3IA9,,3IA9,,,,POINT (-93.9072036743164 43.475799560546875),https://www.openstreetmap.org/edit?editor=id#map=18/43.475800/-93.907204
516592,3ID3,small_airport,Estes Airport,46.778153,-117.025436,2687.0,,US,US-ID,Moscow,no,3ID3,,3ID3,,,,POINT (-117.02543599999997 46.77815299999999),https://www.openstreetmap.org/edit?editor=id#map=18/46.778153/-117.025436
10496,3ID7,small_airport,Indian Creek Ranch Airport,43.47600173950195,-116.40399932861328,2674.0,,US,US-ID,Kuna,no,3ID7,,3ID7,,,,POINT (-116.40399932861328 43.47600173950195),https://www.openstreetmap.org/edit?editor=id#map=18/43.476002/-116.403999
299707,3II0,small_airport,Fremont (Murphy) Airport,41.6910848513,-84.864256382,1050.0,,US,US-IN,Fremont,no,3II0,,3II0,,,,POINT (-84.864256382 41.69108485129999),https://www.openstreetmap.org/edit?editor=id#map=18/41.691085/-84.864256
345477,3IN0,small_airport,Flying M Airport,41.558732,-87.125933,640.0,,US,US-IN,Portage,no,3IN0,,3IN0,,,,POINT (-87.12593299999999 41.558732),https://www.openstreetmap.org/edit?editor=id#map=18/41.558732/-87.125933
10519,3IN4,small_airport,Johnson Airport,40.775001525878906,-85.33889770507812,830.0,,US,US-IN,Markle,no,3IN4,,3IN4,,,,POINT (-85.33889770507812 40.7750015258789),https://www.openstreetmap.org/edit?editor=id#map=18/40.775002/-85.338898
10520,3IN5,small_airport,Pippenger Airport,41.316898345947266,-85.37139892578125,980.0,,US,US-IN,Albion,no,3IN5,,3IN5,,,,POINT (-85.37139892578124 41.31689834594727),https://www.openstreetmap.org/edit?editor=id#map=18/41.316898/-85.371399
10524,3IN9,small_airport,Thomas Airport,40.15140151977539,-86.11920166015625,890.0,,US,US-IN,Cicero,no,3IN9,,3IN9,,,,POINT (-86.11920166015625 40.1514015197754),https://www.openstreetmap.org/edit?editor=id#map=18/40.151402/-86.119202
10550,3KY3,small_airport,Mason Valley Airport,38.038299560546875,-85.3593978881836,510.0,,US,US-KY,Taylorsville,no,3KY3,,3KY3,,,,POINT (-85.3593978881836 38.038299560546875),https://www.openstreetmap.org/edit?editor=id#map=18/38.038300/-85.359398
345678,3LS8,small_airport,The Place Airport,30.651296,-90.114369,50.0,,US,US-LA,Folsom,no,3LS8,,3LS8,,,,POINT (-90.114369 30.651296),https://www.openstreetmap.org/edit?editor=id#map=18/30.651296/-90.114369
301251,3ME7,seaplane_base,Peru / Destiny Cove SPB,44.460597,-70.396957,580.0,,US,US-ME,,no,3ME7,,,,,,POINT (-70.396957 44.46059699999999),https://www.openstreetmap.org/edit?editor=id#map=18/44.460597/-70.396957
10603,3MI0,small_airport,Doss Field,43.9370002746582,-85.02200317382812,1050.0,,US,US-MI,Lake George,no,3MI0,,3MI0,,,,POINT (-85.02200317382812 43.9370002746582),https://www.openstreetmap.org/edit?editor=id#map=18/43.937000/-85.022003
10638,3MS6,small_airport,E E Lane Airport,32.554298400878906,-90.30290222167967,268.0,,US,US-MS,Flora,no,3MS6,,3MS6,,,,POINT (-90.30290222167967 32.554298400878906),https://www.openstreetmap.org/edit?editor=id#map=18/32.554298/-90.302902
10661,3NE3,small_airport,Wells Airport,40.506868,-99.316464,2275.0,,US,US-NE,Holdrege,no,3NE3,,3NE3,,,,POINT (-99.316464 40.506868),https://www.openstreetmap.org/edit?editor=id#map=18/40.506868/-99.316464
349492,3NE5,small_airport,MT Airfield,40.947553,-96.202597,1165.0,,US,US-NE,Murdock,no,3NE5,,3NE5,,,,POINT (-96.202597 40.94755299999999),https://www.openstreetmap.org/edit?editor=id#map=18/40.947553/-96.202597
10670,3NJ5,small_airport,Mock Airport,40.53340148925781,-74.91629791259766,560.0,,US,US-NJ,Quakertown,no,3NJ5,,3NJ5,,,,POINT (-74.91629791259764 40.533401489257805),https://www.openstreetmap.org/edit?editor=id#map=18/40.533401/-74.916298
10675,3NK0,small_airport,Mc Kinney Airport,43.2030982971,-77.90249633790002,547.0,,US,US-NY,Brockport,no,3NK0,,3NK0,,,,POINT (-77.90249633790002 43.2030982971),https://www.openstreetmap.org/edit?editor=id#map=18/43.203098/-77.902496
10693,3NY5,small_airport,Luke Airport,42.02370071411133,-75.95709991455078,1558.0,,US,US-NY,Binghamton,no,3NY5,,3NY5,,,,POINT (-75.95709991455077 42.02370071411132),https://www.openstreetmap.org/edit?editor=id#map=18/42.023701/-75.957100
10706,3OH4,small_airport,Riceland Aerodrome,41.60390090942383,-80.58979797363281,1115.0,,US,US-OH,Andover,no,3OH4,,3OH4,,,,POINT (-80.5897979736328 41.60390090942383),https://www.openstreetmap.org/edit?editor=id#map=18/41.603901/-80.589798
10710,3OH8,small_airport,Gnadenhutten Airport,40.360802,-81.423302,842.0,,US,US-OH,Gnadenhutten,no,3OH8,,3OH8,,,,POINT (-81.42330199999999 40.36080199999999),https://www.openstreetmap.org/edit?editor=id#map=18/40.360802/-81.423302
10714,3OI6,small_airport,Vogel Airpark,40.96120071411133,-82.37069702148438,1028.0,,US,US-OH,Savannah,no,3OI6,,3OI6,,,,POINT (-82.37069702148438 40.96120071411133),https://www.openstreetmap.org/edit?editor=id#map=18/40.961201/-82.370697
10730,3OR2,small_airport,Maxwell Private Airport,45.312400817871094,-117.95899963378906,2710.0,,US,US-OR,La Grande,no,3OR2,,3OR2,,,,POINT (-117.95899963378906 45.312400817871094),https://www.openstreetmap.org/edit?editor=id#map=18/45.312401/-117.959000
10754,3PN6,small_airport,Gravel Run Airport,41.742484,-80.07484,1240.0,,US,US-PA,Saegertown,no,3PN6,,3PN6,,,,POINT (-80.07483999999998 41.742484),https://www.openstreetmap.org/edit?editor=id#map=18/41.742484/-80.074840
10755,3PN7,small_airport,Stahl's Mountain Airport,41.74789810180664,-75.49739837646484,1950.0,,US,US-PA,Union Dale,no,3PN7,,3PN7,,,,POINT (-75.49739837646483 41.74789810180664),https://www.openstreetmap.org/edit?editor=id#map=18/41.747898/-75.497398
10762,3PS4,small_airport,Mountain Hide-Away Airport,40.72359848022461,-77.98739624023438,1604.0,,US,US-PA,Millcreek,no,3PS4,,3PS4,,,,POINT (-77.98739624023438 40.72359848022461),https://www.openstreetmap.org/edit?editor=id#map=18/40.723598/-77.987396
325674,3TE3,small_airport,Lazy Dog Ranch Airpark,33.074013,-96.432,600.0,,US,US-TX,Nevada,no,3TE3,,3TE3,,,,POINT (-96.43199999999999 33.074012999999994),https://www.openstreetmap.org/edit?editor=id#map=18/33.074013/-96.432000
45878,3VA5,small_airport,Goose Hunt Farm Airport,39.028889,-77.625,340.0,,US,US-VA,Leesburg,no,3VA5,,3VA5,,,,POINT (-77.625 39.02888899999999),https://www.openstreetmap.org/edit?editor=id#map=18/39.028889/-77.625000
10875,3WI3,small_airport,Plover River Airfield,44.76520156860352,-89.40730285644531,1185.0,,US,US-WI,Bevent,no,3WI3,,3WI3,,,,POINT (-89.4073028564453 44.76520156860353),https://www.openstreetmap.org/edit?editor=id#map=18/44.765202/-89.407303
513265,3WS9,small_airport,Woodland Farms Airport,43.61145,-90.307196,1309.0,,US,US-WI,Hillsboro,no,3WS9,,3WS9,,,,POINT (-90.307196 43.611449999999984),https://www.openstreetmap.org/edit?editor=id#map=18/43.611450/-90.307196
10895,3XS4,small_airport,Jenkins Airport,30.1343994140625,-93.93599700927734,15.0,,US,US-TX,Vidor,no,3XS4,,3XS4,,,,POINT (-93.93599700927734 30.134399414062493),https://www.openstreetmap.org/edit?editor=id#map=18/30.134399/-93.935997
10896,3XS5,small_airport,Star Smith Field,29.29800033569336,-98.67669677734376,662.0,,US,US-TX,Von Ormy,no,3XS5,,3XS5,,,,POINT (-98.67669677734376 29.298000335693352),https://www.openstreetmap.org/edit?editor=id#map=18/29.298000/-98.676697
10901,3Y0,small_airport,Wall Lake Municipal Airport,42.26240158081055,-95.0906982421875,1224.0,,US,US-IA,Wall Lake,no,3Y0,,3Y0,,,,POINT (-95.0906982421875 42.262401580810554),https://www.openstreetmap.org/edit?editor=id#map=18/42.262402/-95.090698
10905,3Z8,seaplane_base,Golden Horn Lodge Seaplane Base,59.7470016479,-158.875,91.0,,US,US-AK,Golden Horn Lodge,no,3Z8,GDH,3Z8,,,,POINT (-158.875 59.74700164790001),https://www.openstreetmap.org/edit?editor=id#map=18/59.747002/-158.875000
322249,40MT,small_airport,Silver Creek Airport,46.706601,-112.06909,3860.0,,US,US-MT,Helena,no,40MT,,40MT,,,https://web.archive.org/web/20150924110614/http://www.airnav.com/airport/40MT,POINT (-112.06908999999999 46.706601),https://www.openstreetmap.org/edit?editor=id#map=18/46.706601/-112.069090
10932,40OH,small_airport,Bucks Airport,41.450479,-81.234512,1220.0,,US,US-OH,Newbury Township,no,40OH,,40OH,,,,POINT (-81.234512 41.45047899999999),https://www.openstreetmap.org/edit?editor=id#map=18/41.450479/-81.234512
10933,40OI,small_airport,M.C.R. Airport,41.06169891357422,-81.98359680175781,1155.0,,US,US-OH,Lodi,no,40OI,,40OI,,,,POINT (-81.9835968017578 41.06169891357422),https://www.openstreetmap.org/edit?editor=id#map=18/41.061699/-81.983597
10937,40TA,small_airport,Miles Field,31.312999725341797,-96.22049713134766,460.0,,US,US-TX,Jewett,no,40TA,,40TA,,,,POINT (-96.22049713134766 31.312999725341797),https://www.openstreetmap.org/edit?editor=id#map=18/31.313000/-96.220497
10950,41CO,small_airport,Flying Dog Ranch Airstrip,39.971195,-107.611082,7020.0,,US,US-CO,Buford,no,41CO,,41CO,,,,POINT (-107.611082 39.971194999999994),https://www.openstreetmap.org/edit?editor=id#map=18/39.971195/-107.611082
346645,41IG,small_airport,Parker Field,39.972549,-86.997578,780.0,,US,US-IN,Crawfordsville,no,41IG,,41IG,,,,POINT (-86.997578 39.972549),https://www.openstreetmap.org/edit?editor=id#map=18/39.972549/-86.997578
10957,41IS,small_airport,Rees Field,41.204498291015625,-88.80339813232422,675.0,,US,US-IL,Grand Ridge,no,41IS,,41IS,,,,POINT (-88.8033981323242 41.204498291015625),https://www.openstreetmap.org/edit?editor=id#map=18/41.204498/-88.803398
506304,41ME,small_airport,Eagle Ridge Airfield,44.519616,-70.146278,400.0,,US,US-ME,Jay,no,41ME,,41ME,,,,POINT (-70.146278 44.51961599999999),https://www.openstreetmap.org/edit?editor=id#map=18/44.519616/-70.146278
430412,41MS,small_airport,Dixie Dusters Airport,33.523339,-90.362093,126.0,,US,US-MS,Itta Bena,no,41MS,,41MS,,,,POINT (-90.36209300000002 33.523339),https://www.openstreetmap.org/edit?editor=id#map=18/33.523339/-90.362093
299708,41NK,small_airport,Winchell Mountain Airport,41.947778,-73.518055,1141.0,,US,US-NY,Millerton,no,41NK,,41NK,,,,POINT (-73.518055 41.947778),https://www.openstreetmap.org/edit?editor=id#map=18/41.947778/-73.518055
513296,41TT,small_airport,Rancho Paraiso Airport,30.181375,-99.40747,2097.0,,US,US-TX,Mountain Home,no,41TT,,41TT,,,,POINT (-99.40746999999999 30.181374999999996),https://www.openstreetmap.org/edit?editor=id#map=18/30.181375/-99.407470
348554,42TT,small_airport,Duke International Airport,30.45562,-95.230785,250.0,,US,US-TX,Cleveland,no,42TT,,42TT,,,,POINT (-95.23078500000001 30.455619999999993),https://www.openstreetmap.org/edit?editor=id#map=18/30.455620/-95.230785
353032,42XA,small_airport,Skid Row Airpark,31.362276,-97.0903,472.0,,US,US-TX,Golinda,no,42XA,,42XA,,,,POINT (-97.09030000000001 31.362276),https://www.openstreetmap.org/edit?editor=id#map=18/31.362276/-97.090300
11030,43FL,small_airport,Rockin G Ranch Airport,28.984023,-81.826184,67.0,,US,US-FL,Umatilla,no,4FA1,,4FA1,,,"43FL, Fly'n R Ranch",POINT (-81.82618399999998 28.984023),https://www.openstreetmap.org/edit?editor=id#map=18/28.984023/-81.826184
45712,43OA,small_airport,Anderson Airfield,39.581422,-84.092783,940.0,,US,US-OH,Waynesville,no,43OA,,43OA,,,Bellbrook,POINT (-84.092783 39.58142200000001),https://www.openstreetmap.org/edit?editor=id#map=18/39.581422/-84.092783
11050,43OR,small_airport,Inspiration Airport,44.622655,-122.753742,3400.0,,US,US-OR,Bend,no,43OR,,43OR,,,,POINT (-122.75374199999999 44.622654999999995),https://www.openstreetmap.org/edit?editor=id#map=18/44.622655/-122.753742
530011,43SC,small_airport,Flying Changes Farm Ultralight Flightpark,35.019537,-82.546479,910.0,,US,US-SC,Marietta,no,43SC,,43SC,,,,POINT (-82.546479 35.019537),https://www.openstreetmap.org/edit?editor=id#map=18/35.019537/-82.546479
340926,43XA,small_airport,Gulf Coast Aviation Airport,28.825625,-95.908217,23.0,,US,US-TX,Wadsworth,no,43XA,,43XA,,,,POINT (-95.908217 28.825625),https://www.openstreetmap.org/edit?editor=id#map=18/28.825625/-95.908217
11061,43Y,small_airport,Northome Municipal Airport,47.889453,-94.260103,1427.0,,US,US-MN,Northome,no,43Y,,43Y,,,,POINT (-94.26010299999999 47.889452999999996),https://www.openstreetmap.org/edit?editor=id#map=18/47.889453/-94.260103
11075,44II,small_airport,The Wolf Den Airport,40.95309829711914,-85.3865966796875,815.0,,US,US-IN,Roanoke,no,44II,,44II,,,,POINT (-85.3865966796875 40.95309829711914),https://www.openstreetmap.org/edit?editor=id#map=18/40.953098/-85.386597
11077,44IN,small_airport,Rush STOLport,40.49980163574219,-86.95500183105469,675.0,,US,US-IN,West Lafayette,no,44IN,,44IN,,,,POINT (-86.95500183105469 40.499801635742195),https://www.openstreetmap.org/edit?editor=id#map=18/40.499802/-86.955002
346422,44LS,small_airport,Sheridan's Strip,30.472201,-90.367785,24.0,,US,US-LA,Ponchatoula,no,44LS,,44LS,,,,POINT (-90.36778499999998 30.472201000000002),https://www.openstreetmap.org/edit?editor=id#map=18/30.472201/-90.367785
11092,44NY,small_airport,Tomcat Airport,42.93429946899414,-74.65239715576172,460.0,,US,US-NY,Fort Plain,no,44NY,,44NY,,,,POINT (-74.6523971557617 42.93429946899413),https://www.openstreetmap.org/edit?editor=id#map=18/42.934299/-74.652397
11101,44TN,small_airport,Stone Field,35.84090042,-84.07569885,890.0,,US,US-TN,Louisville,no,44TN,,44TN,,,,POINT (-84.07569885 35.84090041999999),https://www.openstreetmap.org/edit?editor=id#map=18/35.840900/-84.075699
344835,44XA,small_airport,HFS Airport,27.836944,-97.771806,72.0,,US,US-TX,Robstown,no,44XA,,44XA,,,,POINT (-97.77180599999998 27.836944),https://www.openstreetmap.org/edit?editor=id#map=18/27.836944/-97.771806
318193,45AA,small_airport,Davidson Strip Airport,62.1628972,-150.5396083,383.0,,US,US-AK,Talkeetna,no,45AA,,45AA,,,,POINT (-150.5396083 62.1628972),https://www.openstreetmap.org/edit?editor=id#map=18/62.162897/-150.539608
11107,45AK,small_airport,Cherokee Airport,63.954955,-145.448536,1300.0,,US,US-AK,Delta Junction,no,45AK,,45AK,,,,POINT (-145.448536 63.95495499999999),https://www.openstreetmap.org/edit?editor=id#map=18/63.954955/-145.448536
11120,45IN,small_airport,Aerobatic Practice Airport,38.99639892578125,-85.74800109863281,681.0,,US,US-IN,North Vernon,no,45IN,,45IN,,,,POINT (-85.7480010986328 38.99639892578124),https://www.openstreetmap.org/edit?editor=id#map=18/38.996399/-85.748001
11141,45TN,small_airport,Darnell's Landings Airport,36.50669860839844,-82.71170043945312,1150.0,,US,US-TN,Church Hill,no,45TN,,45TN,,,,POINT (-82.71170043945311 36.506698608398445),https://www.openstreetmap.org/edit?editor=id#map=18/36.506699/-82.711700
11158,46IA,small_airport,Todd Field,41.756928,-93.566723,965.0,,US,US-IA,Ankeny,no,46IA,,46IA,,,Todd's Flying Service,POINT (-93.56672299999998 41.756927999999995),https://www.openstreetmap.org/edit?editor=id#map=18/41.756928/-93.566723
11175,46OH,small_airport,Wetzl Airport,41.10369873046875,-80.82649993896484,997.0,,US,US-OH,North Jackson,no,46OH,,46OH,,,,POINT (-80.82649993896484 41.10369873046875),https://www.openstreetmap.org/edit?editor=id#map=18/41.103699/-80.826500
11176,46OI,small_airport,Kellers Strip,41.68339920043945,-83.7666015625,700.0,,US,US-OH,Sylvania,no,46OI,,46OI,,,,POINT (-83.7666015625 41.68339920043945),https://www.openstreetmap.org/edit?editor=id#map=18/41.683399/-83.766602
523790,47GE,small_airport,Flylander Farm Airport,34.482168,-85.304374,748.0,,US,US-GA,Summerville,no,47GE,,47GE,,,,POINT (-85.304374 34.482168),https://www.openstreetmap.org/edit?editor=id#map=18/34.482168/-85.304374
11199,47II,small_airport,Westrick Airport,41.05619812011719,-85.69049835205078,800.0,,US,US-IN,Liberty Mills,no,47II,,47II,,,,POINT (-85.69049835205077 41.05619812011718),https://www.openstreetmap.org/edit?editor=id#map=18/41.056198/-85.690498
11209,47MN,small_airport,Sons Private-Commercial Airport,44.7053,-93.85495,1000.0,,US,US-MN,Norwood Young America,no,47MN,,47MN,,,,POINT (-93.85494999999999 44.7053),https://www.openstreetmap.org/edit?editor=id#map=18/44.705300/-93.854950
11210,47MO,small_airport,Cliff Scott Airport,39.736667,-93.99125,1000.0,,US,US-MO,Hamilton,no,,,,,,47MO,POINT (-93.99125 39.73666699999999),https://www.openstreetmap.org/edit?editor=id#map=18/39.736667/-93.991250
11219,47PA,small_airport,Homan Airport,40.71670150756836,-77.98310089111328,1200.0,,US,US-PA,State College,no,47PA,,47PA,,,,POINT (-77.98310089111327 40.71670150756836),https://www.openstreetmap.org/edit?editor=id#map=18/40.716702/-77.983101
11221,47TA,small_airport,Pleasure Field,33.25600051879883,-96.8852996826172,604.0,,US,US-TX,Prosper,no,47TA,,47TA,,,,POINT (-96.8852996826172 33.25600051879883),https://www.openstreetmap.org/edit?editor=id#map=18/33.256001/-96.885300
349107,47XA,small_airport,Luv Field,30.506519,-97.41354,540.0,,US,US-TX,Taylor,no,47XA,,47XA,,,,POINT (-97.41353999999998 30.506519),https://www.openstreetmap.org/edit?editor=id#map=18/30.506519/-97.413540
11228,47XS,small_airport,Bartos Farm Airport,33.47249984741211,-101.78500366210938,3153.0,,US,US-TX,Lubbock,no,47XS,,47XS,,,,POINT (-101.78500366210936 33.4724998474121),https://www.openstreetmap.org/edit?editor=id#map=18/33.472500/-101.785004
346214,48AR,small_airport,Whirlwind Aviation Airport,35.484715,-90.841119,240.0,,US,US-AR,Fisher,no,48AR,,48AR,,,,POINT (-90.84111899999999 35.484715),https://www.openstreetmap.org/edit?editor=id#map=18/35.484715/-90.841119
